GeoType,GeoTypeDesc,GeoID,Name,BoroID,Borough,Lat,Long
Citywide,Citywide,1,New York City,,,,
Borough,Borough,1,Bronx,1,Bronx,40.85264,-73.86651
Borough,Borough,2,Brooklyn,2,Brooklyn,40.64475,-73.94785
Borough,Borough,3,Manhattan,3,Manhattan,40.77725,-73.96719
Borough,Borough,4,Queens,4,Queens,40.70763,-73.81855
Borough,Borough,5,Staten Island,5,Staten Island,40.58083,-74.1534
UHF34,UHF 34,101,Kingsbridge - Riverdale,1,Bronx,40.89263,-73.90117
UHF34,UHF 34,102,Northeast Bronx,1,Bronx,40.88059,-73.84478
UHF34,UHF 34,103,Fordham - Bronx Pk,1,Bronx,40.87211,-73.88066
UHF34,UHF 34,104,Pelham - Throgs Neck,1,Bronx,40.84051,-73.83375
UHF34,UHF 34,201,Greenpoint,2,Brooklyn,40.72019,-73.94967
UHF34,UHF 34,202,Downtown - Heights - Slope,2,Brooklyn,40.68356,-73.98636
UHF34,UHF 34,203,Bedford Stuyvesant - Crown Heights,2,Brooklyn,40.67346,-73.93344
UHF34,UHF 34,204,East New York,2,Brooklyn,40.67207,-73.883
UHF34,UHF 34,205,Sunset Park,2,Brooklyn,40.64774,-74.00912
UHF34,UHF 34,206,Borough Park,2,Brooklyn,40.62844,-73.98038
UHF34,UHF 34,207,East Flatbush - Flatbush,2,Brooklyn,40.64644,-73.94839
UHF34,UHF 34,208,Canarsie - Flatlands,2,Brooklyn,40.62031,-73.9037
UHF34,UHF 34,209,Bensonhurst - Bay Ridge,2,Brooklyn,40.61178,-74.01265
UHF34,UHF 34,210,Coney Island - Sheepshead Bay,2,Brooklyn,40.59043,-73.96119
UHF34,UHF 34,211,Williamsburg - Bushwick,2,Brooklyn,40.69863,-73.93158
UHF34,UHF 34,301,Washington Heights,3,Manhattan,40.84954,-73.93509
UHF34,UHF 34,302,Central Harlem - Morningside Heights,3,Manhattan,40.81317,-73.94835
UHF34,UHF 34,303,East Harlem,3,Manhattan,40.79397,-73.93501
UHF34,UHF 34,304,Upper West Side,3,Manhattan,40.78838,-73.97558
UHF34,UHF 34,401,Long Island City - Astoria,4,Queens,40.75754,-73.92784
UHF34,UHF 34,402,West Queens,4,Queens,40.74406,-73.88795
UHF34,UHF 34,403,Flushing - Clearview,4,Queens,40.77075,-73.8151
UHF34,UHF 34,405,Ridgewood - Forest Hills,4,Queens,40.71123,-73.87234
UHF34,UHF 34,407,Southwest Queens,4,Queens,40.67955,-73.83553
UHF34,UHF 34,408,Jamaica,4,Queens,40.69603,-73.78311
UHF34,UHF 34,409,Southeast Queens,4,Queens,40.7022,-73.73709
UHF34,UHF 34,410,Rockaways,4,Queens,40.58999,-73.82284
UHF34,UHF 34,305307,Upper East Side-Gramercy,3,Manhattan,40.76094,-73.96483
UHF34,UHF 34,306308,Chelsea-Village  ,3,Manhattan,40.74476,-73.9972
UHF34,UHF 34,309310,Union Square-Lower Manhattan,3,Manhattan,40.71642,-73.99484
UHF34,UHF 34,404406,Bayside Little Neck-Fresh Meadows,4,Queens,40.74705,-73.77626
UHF34,UHF 34,501502,Northern SI,5,Staten Island,40.61778,-74.10764
UHF34,UHF 34,503504,Southern SI,5,Staten Island,40.56517,-74.17271
UHF34,UHF 34,105106107,South Bronx,1,Bronx,40.82736,-73.90179
UHF42,UHF 42,101,Kingsbridge - Riverdale,1,Bronx,40.89263,-73.90117
UHF42,UHF 42,102,Northeast Bronx,1,Bronx,40.88059,-73.84478
UHF42,UHF 42,103,Fordham - Bronx Pk,1,Bronx,40.87212,-73.88069
UHF42,UHF 42,104,Pelham - Throgs Neck,1,Bronx,40.84051,-73.83375
UHF42,UHF 42,105,Crotona -Tremont,1,Bronx,40.84636,-73.89448
UHF42,UHF 42,106,High Bridge - Morrisania,1,Bronx,40.82938,-73.91843
UHF42,UHF 42,107,Hunts Point - Mott Haven,1,Bronx,40.81309,-73.89883
UHF42,UHF 42,201,Greenpoint,2,Brooklyn,40.7202,-73.94966
UHF42,UHF 42,202,Downtown - Heights - Slope,2,Brooklyn,40.68356,-73.98636
UHF42,UHF 42,203,Bedford Stuyvesant - Crown Heights,2,Brooklyn,40.67346,-73.93344
UHF42,UHF 42,204,East New York,2,Brooklyn,40.67207,-73.883
UHF42,UHF 42,205,Sunset Park,2,Brooklyn,40.64774,-74.00912
UHF42,UHF 42,206,Borough Park,2,Brooklyn,40.62844,-73.98038
UHF42,UHF 42,207,East Flatbush - Flatbush,2,Brooklyn,40.64644,-73.94839
UHF42,UHF 42,208,Canarsie - Flatlands,2,Brooklyn,40.62031,-73.9037
UHF42,UHF 42,209,Bensonhurst - Bay Ridge,2,Brooklyn,40.61178,-74.01265
UHF42,UHF 42,210,Coney Island - Sheepshead Bay,2,Brooklyn,40.59043,-73.96119
UHF42,UHF 42,211,Williamsburg - Bushwick,2,Brooklyn,40.69863,-73.93158
UHF42,UHF 42,301,Washington Heights,3,Manhattan,40.84954,-73.93509
UHF42,UHF 42,302,Central Harlem - Morningside Heights,3,Manhattan,40.81317,-73.94836
UHF42,UHF 42,303,East Harlem,3,Manhattan,40.79397,-73.93501
UHF42,UHF 42,304,Upper West Side,3,Manhattan,40.78838,-73.97547
UHF42,UHF 42,305,Upper East Side,3,Manhattan,40.77168,-73.95551
UHF42,UHF 42,306,Chelsea - Clinton,3,Manhattan,40.75401,-73.99367
UHF42,UHF 42,307,Gramercy Park - Murray Hill,3,Manhattan,40.74885,-73.9753
UHF42,UHF 42,308,Greenwich Village - SoHo,3,Manhattan,40.72653,-74.00417
UHF42,UHF 42,309,Union Square - Lower East Side,3,Manhattan,40.72327,-73.9847
UHF42,UHF 42,310,Lower Manhattan,3,Manhattan,40.70524,-74.01137
UHF42,UHF 42,401,Long Island City - Astoria,4,Queens,40.75754,-73.92785
UHF42,UHF 42,402,West Queens,4,Queens,40.74643,-73.88769
UHF42,UHF 42,403,Flushing - Clearview,4,Queens,40.77074,-73.81511
UHF42,UHF 42,404,Bayside - Little Neck,4,Queens,40.75662,-73.75391
UHF42,UHF 42,405,Ridgewood - Forest Hills,4,Queens,40.71123,-73.87234
UHF42,UHF 42,406,Fresh Meadows,4,Queens,40.73366,-73.80752
UHF42,UHF 42,407,Southwest Queens,4,Queens,40.67955,-73.83553
UHF42,UHF 42,408,Jamaica,4,Queens,40.69603,-73.78311
UHF42,UHF 42,409,Southeast Queens,4,Queens,40.70222,-73.73709
UHF42,UHF 42,410,Rockaways,4,Queens,40.58999,-73.82284
UHF42,UHF 42,501,Port Richmond,5,Staten Island,40.63239,-74.14689
UHF42,UHF 42,502,Stapleton - St. George,5,Staten Island,40.61044,-74.08792
UHF42,UHF 42,503,Willowbrook,5,Staten Island,40.60031,-74.16118
UHF42,UHF 42,504,South Beach - Tottenville,5,Staten Island,40.54531,-74.17922
Subboro,Sub-borough/PUMA,1,Mott Haven/Hunts Point,1,Bronx,40.80925,-73.89914
Subboro,Sub-borough/PUMA,2,Morrisania/East Tremont,1,Bronx,40.8454,-73.88765
Subboro,Sub-borough/PUMA,3,Highbridge/South Concourse,1,Bronx,40.83247,-73.92155
Subboro,Sub-borough/PUMA,4,University Heights/Fordham,1,Bronx,40.85216,-73.90974
Subboro,Sub-borough/PUMA,5,Kingsbridge Heights/Mosholu,1,Bronx,40.87035,-73.8909
Subboro,Sub-borough/PUMA,6,Riverdale/Kingsbridge,1,Bronx,40.88944,-73.90488
Subboro,Sub-borough/PUMA,7,Soundview/Parkchester,1,Bronx,40.82537,-73.85953
Subboro,Sub-borough/PUMA,8,Throgs Neck/Co-op City,1,Bronx,40.85103,-73.81588
Subboro,Sub-borough/PUMA,9,Pelham Parkway,1,Bronx,40.85618,-73.85254
Subboro,Sub-borough/PUMA,10,Williamsbridge/Baychester,1,Bronx,40.89,-73.86164
Subboro,Sub-borough/PUMA,11,Williamsburg/Greenpoint,2,Brooklyn,40.71844,-73.94839
Subboro,Sub-borough/PUMA,12,Brooklyn Heights/Fort Greene,2,Brooklyn,40.69266,-73.97739
Subboro,Sub-borough/PUMA,13,Bedford Stuyvesant,2,Brooklyn,40.68987,-73.94107
Subboro,Sub-borough/PUMA,14,Bushwick,2,Brooklyn,40.69695,-73.92064
Subboro,Sub-borough/PUMA,15,East New York/Starret City,2,Brooklyn,40.66497,-73.87753
Subboro,Sub-borough/PUMA,16,Park Slope/Carroll Gardens,2,Brooklyn,40.67187,-73.9881
Subboro,Sub-borough/PUMA,17,Sunset Park,2,Brooklyn,40.64995,-74.00153
Subboro,Sub-borough/PUMA,18,N. Crown Heights/Prospect Heights,2,Brooklyn,40.67499,-73.94397
Subboro,Sub-borough/PUMA,19,South Crown Heights,2,Brooklyn,40.66136,-73.94789
Subboro,Sub-borough/PUMA,20,Bay Ridge,2,Brooklyn,40.6229,-74.0239
Subboro,Sub-borough/PUMA,21,Bensonhurst,2,Brooklyn,40.60688,-73.99363
Subboro,Sub-borough/PUMA,22,Borough Park,2,Brooklyn,40.62993,-73.98268
Subboro,Sub-borough/PUMA,23,Coney Island,2,Brooklyn,40.5814,-73.98104
Subboro,Sub-borough/PUMA,24,Flatbush,2,Brooklyn,40.6304,-73.95914
Subboro,Sub-borough/PUMA,25,Sheepshead Bay/Gravesend,2,Brooklyn,40.59496,-73.94868
Subboro,Sub-borough/PUMA,26,Brownsville/Ocean Hill,2,Brooklyn,40.6682,-73.9072
Subboro,Sub-borough/PUMA,27,East Flatbush,2,Brooklyn,40.64767,-73.93429
Subboro,Sub-borough/PUMA,28,Flatlands/Canarsie,2,Brooklyn,40.61553,-73.90384
Subboro,Sub-borough/PUMA,29,Greenwich Village/Financial District,3,Manhattan,40.71716,-74.00742
Subboro,Sub-borough/PUMA,30,Lower East Side/Chinatown,3,Manhattan,40.71936,-73.98612
Subboro,Sub-borough/PUMA,31,Chelsea/Clinton/Midtown,3,Manhattan,40.75401,-73.99213
Subboro,Sub-borough/PUMA,32,Stuyvesant Town/Turtle Bay,3,Manhattan,40.74535,-73.97521
Subboro,Sub-borough/PUMA,33,Upper West Side,3,Manhattan,40.78418,-73.97222
Subboro,Sub-borough/PUMA,34,Upper East Side,3,Manhattan,40.77157,-73.95572
Subboro,Sub-borough/PUMA,35,Morningside Heights/Hamilton Heights,3,Manhattan,40.81673,-73.95575
Subboro,Sub-borough/PUMA,36,Central Harlem,3,Manhattan,40.81321,-73.94459
Subboro,Sub-borough/PUMA,37,East Harlem,3,Manhattan,40.7946,-73.93488
Subboro,Sub-borough/PUMA,38,Washington Heights/Inwood,3,Manhattan,40.85595,-73.93067
Subboro,Sub-borough/PUMA,39,Astoria,4,Queens,40.76792,-73.918
Subboro,Sub-borough/PUMA,40,Sunnyside/Woodside,4,Queens,40.74072,-73.91972
Subboro,Sub-borough/PUMA,41,Jackson Heights,4,Queens,40.7622,-73.87589
Subboro,Sub-borough/PUMA,42,Elmhurst/Corona,4,Queens,40.74058,-73.85508
Subboro,Sub-borough/PUMA,43,Middle Village/Ridgewood,4,Queens,40.7104,-73.88946
Subboro,Sub-borough/PUMA,44,Forest Hills/Rego Park,4,Queens,40.72264,-73.85169
Subboro,Sub-borough/PUMA,45,Flushing/Whitestone,4,Queens,40.77147,-73.81589
Subboro,Sub-borough/PUMA,46,Hillcrest/Fresh Meadows,4,Queens,40.72584,-73.79617
Subboro,Sub-borough/PUMA,47,Kew Gardens/Woodhaven,4,Queens,40.69637,-73.84161
Subboro,Sub-borough/PUMA,48,Howard Beach/South Ozone Park,4,Queens,40.66933,-73.83301
Subboro,Sub-borough/PUMA,49,Bayside/Little Neck,4,Queens,40.75646,-73.7593
Subboro,Sub-borough/PUMA,50,Jamaica,4,Queens,40.69164,-73.77865
Subboro,Sub-borough/PUMA,51,Bellerose/Rosedale,4,Queens,40.68046,-73.75505
Subboro,Sub-borough/PUMA,52,Rockaways,4,Queens,40.59103,-73.82455
Subboro,Sub-borough/PUMA,53,North Shore,5,Staten Island,40.62668,-74.12045
Subboro,Sub-borough/PUMA,54,Mid Island,5,Staten Island,40.59071,-74.14328
Subboro,Sub-borough/PUMA,55,South Shore,5,Staten Island,40.53892,-74.18718
CD,Community District,101,Financial District (CD1),3,Manhattan,40.70738,-74.012
CD,Community District,102,Greenwich Village and Soho (CD2),3,Manhattan,40.7298,-74.00153
CD,Community District,103,Lower East Side and Chinatown (CD3),3,Manhattan,40.7196,-73.98554
CD,Community District,104,Clinton and Chelsea (CD4),3,Manhattan,40.75542,-73.99754
CD,Community District,105,Midtown (CD5),3,Manhattan,40.75228,-73.98406
CD,Community District,106,Stuyvesant Town and Turtle Bay (CD6),3,Manhattan,40.74466,-73.97458
CD,Community District,107,Upper West Side (CD7),3,Manhattan,40.78717,-73.97613
CD,Community District,108,Upper East Side (CD8),3,Manhattan,40.77157,-73.95572
CD,Community District,109,Morningside Heights and Hamilton Heights (CD9),3,Manhattan,40.81805,-73.95503
CD,Community District,110,Central Harlem (CD10),3,Manhattan,40.81369,-73.94474
CD,Community District,111,East Harlem (CD11),3,Manhattan,40.79491,-73.93498
CD,Community District,112,Washington Heights and Inwood (CD12),3,Manhattan,40.85512,-73.93152
CD,Community District,201,Mott Haven and Melrose (CD1),1,Bronx,40.81091,-73.91647
CD,Community District,202,Hunts Point and Longwood (CD2),1,Bronx,40.81333,-73.88788
CD,Community District,203,Morrisania and Crotona (CD3),1,Bronx,40.83256,-73.89865
CD,Community District,204,Highbridge and Concourse (CD4),1,Bronx,40.83381,-73.9208
CD,Community District,205,Fordham and University Heights (CD5),1,Bronx,40.85275,-73.90958
CD,Community District,206,Belmont and East Tremont (CD6),1,Bronx,40.8496,-73.88753
CD,Community District,207,Kingsbridge Heights and Bedford (CD7),1,Bronx,40.87098,-73.89146
CD,Community District,208,Riverdale and Fieldston (CD8),1,Bronx,40.8905,-73.9063
CD,Community District,209,Parkchester and Soundview (CD9),1,Bronx,40.82477,-73.86166
CD,Community District,210,Throgs Neck and Co-op City (CD10),1,Bronx,40.83863,-73.82181
CD,Community District,211,Morris Park and Bronxdale (CD11),1,Bronx,40.85615,-73.85278
CD,Community District,212,Williamsbridge and Baychester (CD12),1,Bronx,40.8863,-73.85149
CD,Community District,301,Greenpoint and Williamsburg (CD1),2,Brooklyn,40.71684,-73.94717
CD,Community District,302,Fort Greene and Brooklyn Heights (CD2),2,Brooklyn,40.69349,-73.97873
CD,Community District,303,Bedford Stuyvesant (CD3),2,Brooklyn,40.68769,-73.94056
CD,Community District,304,Bushwick (CD4),2,Brooklyn,40.69455,-73.91683
CD,Community District,305,East New York and Starrett City (CD5),2,Brooklyn,40.66848,-73.87971
CD,Community District,306,Park Slope and Carroll Gardens (CD6),2,Brooklyn,40.67637,-73.99445
CD,Community District,307,Sunset Park (CD7),2,Brooklyn,40.65199,-74.00106
CD,Community District,308,Crown Heights and Prospect Heights (CD8),2,Brooklyn,40.67436,-73.9466
CD,Community District,309,South Crown Heights and Lefferts Gardens (CD9),2,Brooklyn,40.6628,-73.94692
CD,Community District,310,Bay Ridge and Dyker Heights (CD10),2,Brooklyn,40.62331,-74.02347
CD,Community District,311,Bensonhurst (CD11),2,Brooklyn,40.60721,-73.99364
CD,Community District,312,Borough Park (CD12),2,Brooklyn,40.63123,-73.98326
CD,Community District,313,Coney Island (CD13),2,Brooklyn,40.58065,-73.98214
CD,Community District,314,Flatbush and Midwood (CD14),2,Brooklyn,40.63185,-73.95912
CD,Community District,315,Sheepshead Bay (CD15),2,Brooklyn,40.59448,-73.94985
CD,Community District,316,Brownsville (CD16),2,Brooklyn,40.66816,-73.91094
CD,Community District,317,East Flatbush (CD17),2,Brooklyn,40.64804,-73.93382
CD,Community District,318,Flatlands and Canarsie (CD18),2,Brooklyn,40.624,-73.91402
CD,Community District,401,Long Island City and Astoria (CD1),4,Queens,40.7702,-73.91337
CD,Community District,402,Woodside and Sunnyside (CD2),4,Queens,40.74047,-73.92301
CD,Community District,403,Jackson Heights (CD3),4,Queens,40.75823,-73.87694
CD,Community District,404,Elmhurst and Corona (CD4),4,Queens,40.74085,-73.8715
CD,Community District,405,Ridgewood and Maspeth (CD5),4,Queens,40.71076,-73.89053
CD,Community District,406,Rego Park and Forest Hills (CD6),4,Queens,40.72217,-73.85135
CD,Community District,407,Flushing and Whitestone (CD7),4,Queens,40.77146,-73.81604
CD,Community District,408,Hillcrest and Fresh Meadows (CD8),4,Queens,40.72617,-73.79736
CD,Community District,409,Kew Gardens and Woodhaven (CD9),4,Queens,40.69484,-73.83907
CD,Community District,410,South Ozone Park and Howard Beach (CD10),4,Queens,40.66937,-73.83274
CD,Community District,411,Bayside and Little Neck (CD11),4,Queens,40.75661,-73.75918
CD,Community District,412,Jamaica and Hollis (CD12),4,Queens,40.69158,-73.77844
CD,Community District,413,Queens Village (CD13),4,Queens,40.69956,-73.73735
CD,Community District,414,Rockaway and Broad Channel (CD14),4,Queens,40.58913,-73.81028
CD,Community District,501,St. George and Stapleton (CD1),5,Staten Island,40.62664,-74.12049
CD,Community District,502,South Beach and Willowbrook (CD2),5,Staten Island,40.59319,-74.1418
CD,Community District,503,Tottenville and Great Kills (CD3),5,Staten Island,40.54124,-74.1903
CDTA2020,Community District Tabulation Area,501,Melrose-Mott Haven-Port Morris (CD 1),1,Bronx,40.81071,-73.91594
CDTA2020,Community District Tabulation Area,502,Longwood-Hunts Point (CD 2),1,Bronx,40.81323,-73.88809
CDTA2020,Community District Tabulation Area,503,Morrisania-Crotona Park East (CD 3),1,Bronx,40.83275,-73.89758
CDTA2020,Community District Tabulation Area,504,Highbridge-Concourse (CD 4),1,Bronx,40.83286,-73.92114
CDTA2020,Community District Tabulation Area,505,Morris Heights-Mount Hope (CD 5),1,Bronx,40.8525,-73.90923
CDTA2020,Community District Tabulation Area,506,Tremont-Belmont-West Farms (CD 6),1,Bronx,40.8494,-73.8865
CDTA2020,Community District Tabulation Area,507,Fordham-Bedford Park-Norwood (CD 7),1,Bronx,40.87171,-73.892
CDTA2020,Community District Tabulation Area,508,Riverdale-Kingsbridge-Marble Hill (CD 8),1,Bronx,40.8913,-73.90712
CDTA2020,Community District Tabulation Area,509,Soundview-Parkchester (CD 9),1,Bronx,40.82423,-73.86085
CDTA2020,Community District Tabulation Area,510,Co-op City-Throgs Neck (CD 10),1,Bronx,40.83825,-73.82203
CDTA2020,Community District Tabulation Area,511,Pelham Parkway-Morris Park (CD 11),1,Bronx,40.85651,-73.85263
CDTA2020,Community District Tabulation Area,512,Wakefield-Williamsbridge-Eastchester (CD 12),1,Bronx,40.88671,-73.85128
CDTA2020,Community District Tabulation Area,4701,Williamsburg-Greenpoint (CD 1),2,Brooklyn,40.71684,-73.94717
CDTA2020,Community District Tabulation Area,4702,Downtown Brooklyn-Fort Greene (CD 2),2,Brooklyn,40.69383,-73.97838
CDTA2020,Community District Tabulation Area,4703,Bedford-Stuyvesant (CD 3),2,Brooklyn,40.68772,-73.94086
CDTA2020,Community District Tabulation Area,4704,Bushwick (CD 4),2,Brooklyn,40.69455,-73.91684
CDTA2020,Community District Tabulation Area,4705,East New York-Cypress Hills (CD 5),2,Brooklyn,40.66733,-73.88081
CDTA2020,Community District Tabulation Area,4706,Park Slope-Carroll Gardens (CD 6),2,Brooklyn,40.67625,-73.99401
CDTA2020,Community District Tabulation Area,4707,Sunset Park-Windsor Terrace (CD 7),2,Brooklyn,40.65161,-74.00138
CDTA2020,Community District Tabulation Area,4708,Crown Heights (North) (CD 8),2,Brooklyn,40.6745,-73.94715
CDTA2020,Community District Tabulation Area,4709,Crown Heights (South) (CD 9),2,Brooklyn,40.66294,-73.94707
CDTA2020,Community District Tabulation Area,4710,Bay Ridge-Dyker Heights (CD 10),2,Brooklyn,40.62309,-74.02366
CDTA2020,Community District Tabulation Area,4711,Bensonhurst-Bath Beach (CD 11),2,Brooklyn,40.60688,-73.99363
CDTA2020,Community District Tabulation Area,4712,Borough Park-Kensington (CD 12),2,Brooklyn,40.63105,-73.98332
CDTA2020,Community District Tabulation Area,4713,Coney Island-Brighton Beach (CD 13),2,Brooklyn,40.58074,-73.98135
CDTA2020,Community District Tabulation Area,4714,Flatbush-Midwood (CD 14),2,Brooklyn,40.63121,-73.9589
CDTA2020,Community District Tabulation Area,4715,Sheepshead Bay-Gravesend (East) (CD 15),2,Brooklyn,40.59491,-73.94971
CDTA2020,Community District Tabulation Area,4716,Ocean Hill-Brownsville (CD 16),2,Brooklyn,40.66902,-73.91115
CDTA2020,Community District Tabulation Area,4717,East Flatbush (CD 17),2,Brooklyn,40.64843,-73.93439
CDTA2020,Community District Tabulation Area,4718,Canarsie-Flatlands (CD 18),2,Brooklyn,40.62128,-73.91355
CDTA2020,Community District Tabulation Area,6101,Financial District-Tribeca (CD 1),3,Manhattan,40.70637,-74.01213
CDTA2020,Community District Tabulation Area,6102,Greenwich Village-SoHo (CD 2),3,Manhattan,40.72978,-74.00159
CDTA2020,Community District Tabulation Area,6103,Lower East Side-Chinatown (CD 3),3,Manhattan,40.71959,-73.98554
CDTA2020,Community District Tabulation Area,6104,Chelsea-Hell's Kitchen (CD 4),3,Manhattan,40.75504,-73.9978
CDTA2020,Community District Tabulation Area,6105,Midtown-Flatiron-Union Square (CD 5),3,Manhattan,40.75261,-73.98468
CDTA2020,Community District Tabulation Area,6106,East Midtown-Murray Hill (CD 6),3,Manhattan,40.74512,-73.97496
CDTA2020,Community District Tabulation Area,6107,Upper West Side (CD 7),3,Manhattan,40.78677,-73.97639
CDTA2020,Community District Tabulation Area,6108,Upper East Side-Roosevelt Island (CD 8),3,Manhattan,40.77157,-73.95572
CDTA2020,Community District Tabulation Area,6109,Morningside Heights-Hamilton Heights (CD 9),3,Manhattan,40.8182,-73.95478
CDTA2020,Community District Tabulation Area,6110,Harlem (CD 10),3,Manhattan,40.81341,-73.94483
CDTA2020,Community District Tabulation Area,6111,East Harlem (CD 11),3,Manhattan,40.79493,-73.93498
CDTA2020,Community District Tabulation Area,6112,Washington Heights-Inwood (CD 12),3,Manhattan,40.85511,-73.93153
CDTA2020,Community District Tabulation Area,8101,Astoria-Queensbridge (CD 1),4,Queens,40.77022,-73.9132
CDTA2020,Community District Tabulation Area,8102,Long Island City-Sunnyside-Woodside (CD 2),4,Queens,40.74129,-73.92336
CDTA2020,Community District Tabulation Area,8103,Jackson Heights-East Elmhurst (CD 3),4,Queens,40.75827,-73.87739
CDTA2020,Community District Tabulation Area,8104,Elmhurst-Corona (CD 4),4,Queens,40.7408,-73.87191
CDTA2020,Community District Tabulation Area,8105,Ridgewood-Maspeth-Middle Village (CD 5),4,Queens,40.71124,-73.89124
CDTA2020,Community District Tabulation Area,8106,Forest Hills-Rego Park (CD 6),4,Queens,40.72269,-73.85175
CDTA2020,Community District Tabulation Area,8107,Flushing-Murray Hill-Whitestone (CD 7),4,Queens,40.77148,-73.81589
CDTA2020,Community District Tabulation Area,8108,Fresh Meadows-Hillcrest-Briarwood (CD 8),4,Queens,40.72613,-73.79671
CDTA2020,Community District Tabulation Area,8109,Kew Gardens-Richmond Hill-Woodhaven (CD 9),4,Queens,40.69508,-73.83904
CDTA2020,Community District Tabulation Area,8110,South Ozone Park-Howard Beach (CD 10),4,Queens,40.66932,-73.83309
CDTA2020,Community District Tabulation Area,8111,Auburndale-Bayside-Douglaston (CD 11),4,Queens,40.75649,-73.75927
CDTA2020,Community District Tabulation Area,8112,Jamaica-St. Albans-Hollis (CD 12),4,Queens,40.69195,-73.77856
CDTA2020,Community District Tabulation Area,8113,Queens Village-Bellerose-Rosedale (CD 13),4,Queens,40.69923,-73.73757
CDTA2020,Community District Tabulation Area,8114,The Rockaways (CD 14),4,Queens,40.59047,-73.80637
CDTA2020,Community District Tabulation Area,8501,North Shore (CD 1),5,Staten Island,40.62663,-74.12039
CDTA2020,Community District Tabulation Area,8502,Mid-Island (CD 2),5,Staten Island,40.59269,-74.14127
CDTA2020,Community District Tabulation Area,8503,South Shore (CD 3),5,Staten Island,40.54099,-74.19032
NTA2010,Neighborhood Tabulation Area,501,Claremont-Bathgate,1,Bronx,40.84275,-73.90032
NTA2010,Neighborhood Tabulation Area,503,Eastchester-Edenwald-Baychester,1,Bronx,40.88094,-73.83664
NTA2010,Neighborhood Tabulation Area,505,Bedford Park-Fordham North,1,Bronx,40.86768,-73.89018
NTA2010,Neighborhood Tabulation Area,506,Belmont,1,Bronx,40.85778,-73.88587
NTA2010,Neighborhood Tabulation Area,507,Bronxdale,1,Bronx,40.864,-73.8649
NTA2010,Neighborhood Tabulation Area,508,West Farms-Bronx River,1,Bronx,40.83416,-73.87229
NTA2010,Neighborhood Tabulation Area,509,Soundview-Castle Hill-Clason Point-Harding Park,1,Bronx,40.81805,-73.85619
NTA2010,Neighborhood Tabulation Area,510,Pelham Bay-Country Club-City Island,1,Bronx,40.8466,-73.8065
NTA2010,Neighborhood Tabulation Area,513,Co-op City,1,Bronx,40.87398,-73.82828
NTA2010,Neighborhood Tabulation Area,514,East Concourse-Concourse Village,1,Bronx,40.83051,-73.91579
NTA2010,Neighborhood Tabulation Area,517,East Tremont,1,Bronx,40.844970000000004,-73.88552
NTA2010,Neighborhood Tabulation Area,522,North Riverdale-Fieldston-Riverdale,1,Bronx,40.89953,-73.90699
NTA2010,Neighborhood Tabulation Area,526,Highbridge,1,Bronx,40.83783,-73.92616
NTA2010,Neighborhood Tabulation Area,527,Hunts Point,1,Bronx,40.81209,-73.88555
NTA2010,Neighborhood Tabulation Area,528,Van Cortlandt Village,1,Bronx,40.87651,-73.89562
NTA2010,Neighborhood Tabulation Area,529,Spuyten Duyvil-Kingsbridge,1,Bronx,40.88241,-73.91067
NTA2010,Neighborhood Tabulation Area,530,Kingsbridge Heights,1,Bronx,40.86527,-73.90591
NTA2010,Neighborhood Tabulation Area,531,Allerton-Pelham Gardens,1,Bronx,40.86447,-73.84743
NTA2010,Neighborhood Tabulation Area,533,Longwood,1,Bronx,40.81967,-73.89896
NTA2010,Neighborhood Tabulation Area,534,Melrose South-Mott Haven North,1,Bronx,40.81826,-73.91285
NTA2010,Neighborhood Tabulation Area,535,Morrisania-Melrose,1,Bronx,40.82751,-73.90235
NTA2010,Neighborhood Tabulation Area,536,University Heights-Morris Heights,1,Bronx,40.85252,-73.91597
NTA2010,Neighborhood Tabulation Area,537,Van Nest-Morris Park-Westchester Square,1,Bronx,40.84679,-73.85066
NTA2010,Neighborhood Tabulation Area,539,Mott Haven-Port Morris,1,Bronx,40.80735,-73.91682
NTA2010,Neighborhood Tabulation Area,540,Fordham South,1,Bronx,40.85815,-73.89954
NTA2010,Neighborhood Tabulation Area,541,Mount Hope,1,Bronx,40.84906,-73.90512
NTA2010,Neighborhood Tabulation Area,543,Norwood,1,Bronx,40.87714,-73.87902
NTA2010,Neighborhood Tabulation Area,544,Williamsbridge-Olinville,1,Bronx,40.88216,-73.85895
NTA2010,Neighborhood Tabulation Area,546,Parkchester,1,Bronx,40.83775,-73.85799
NTA2010,Neighborhood Tabulation Area,549,Pelham Parkway,1,Bronx,40.8544,-73.8544
NTA2010,Neighborhood Tabulation Area,552,Schuylerville-Throgs Neck-Edgewater Park,1,Bronx,40.82333,-73.82359
NTA2010,Neighborhood Tabulation Area,555,Soundview-Bruckner,1,Bronx,40.8279,-73.86968
NTA2010,Neighborhood Tabulation Area,559,Westchester-Unionport,1,Bronx,40.8321,-73.84864
NTA2010,Neighborhood Tabulation Area,562,Woodlawn-Wakefield,1,Bronx,40.89793,-73.85222
NTA2010,Neighborhood Tabulation Area,563,West Concourse,1,Bronx,40.829,-73.9244
NTA2010,Neighborhood Tabulation Area,575,Crotona Park East,1,Bronx,40.834,-73.8859
NTA2010,Neighborhood Tabulation Area,598,Rikers Island,1,Bronx,40.79113,-73.88265
NTA2010,Neighborhood Tabulation Area,599,park-cemetery-etc-Bronx,1,Bronx,40.87246,-73.84799
NTA2010,Neighborhood Tabulation Area,4709,Brooklyn Heights-Cobble Hill,2,Brooklyn,40.69547,-73.99487
NTA2010,Neighborhood Tabulation Area,4717,Sheepshead Bay-Gerritsen Beach-Manhattan Beach,2,Brooklyn,40.5883,-73.94151
NTA2010,Neighborhood Tabulation Area,4719,Brighton Beach,2,Brooklyn,40.58092,-73.96122
NTA2010,Neighborhood Tabulation Area,4721,Seagate-Coney Island,2,Brooklyn,40.57648,-73.99123
NTA2010,Neighborhood Tabulation Area,4723,West Brighton,2,Brooklyn,40.57909,-73.97339
NTA2010,Neighborhood Tabulation Area,4725,Homecrest,2,Brooklyn,40.59995,-73.96433
NTA2010,Neighborhood Tabulation Area,4726,Gravesend,2,Brooklyn,40.5884,-73.98142
NTA2010,Neighborhood Tabulation Area,4727,Bath Beach,2,Brooklyn,40.60426,-74.00748
NTA2010,Neighborhood Tabulation Area,4728,Bensonhurst West,2,Brooklyn,40.61222,-73.99526
NTA2010,Neighborhood Tabulation Area,4729,Bensonhurst East,2,Brooklyn,40.60142,-73.98355
NTA2010,Neighborhood Tabulation Area,4730,Dyker Heights,2,Brooklyn,40.62244,-74.0121
NTA2010,Neighborhood Tabulation Area,4731,Bay Ridge,2,Brooklyn,40.62485,-74.02989
NTA2010,Neighborhood Tabulation Area,4732,Sunset Park West,2,Brooklyn,40.65238,-74.01124
NTA2010,Neighborhood Tabulation Area,4733,Carroll Gardens-Columbia Street-Red Hook,2,Brooklyn,40.67877,-74.0039
NTA2010,Neighborhood Tabulation Area,4734,Sunset Park East,2,Brooklyn,40.64189,-74.00465
NTA2010,Neighborhood Tabulation Area,4735,Stuyvesant Heights,2,Brooklyn,40.68817,-73.93189
NTA2010,Neighborhood Tabulation Area,4737,Park Slope-Gowanus,2,Brooklyn,40.67123,-73.9839
NTA2010,Neighborhood Tabulation Area,4738,DUMBO-Vinegar Hill-Downtown Brooklyn-Boerum Hill,2,Brooklyn,40.69293,-73.98599
NTA2010,Neighborhood Tabulation Area,4740,Windsor Terrace,2,Brooklyn,40.65361,-73.97798
NTA2010,Neighborhood Tabulation Area,4741,Kensington-Ocean Parkway,2,Brooklyn,40.64059,-73.9762
NTA2010,Neighborhood Tabulation Area,4742,Flatbush,2,Brooklyn,40.6379,-73.96097
NTA2010,Neighborhood Tabulation Area,4743,Midwood,2,Brooklyn,40.62092,-73.95682
NTA2010,Neighborhood Tabulation Area,4744,Madison,2,Brooklyn,40.60491,-73.94814
NTA2010,Neighborhood Tabulation Area,4745,Georgetown-Marine Park-Bergen Beach-Mill Basin,2,Brooklyn,40.61458,-73.91525
NTA2010,Neighborhood Tabulation Area,4746,Ocean Parkway South,2,Brooklyn,40.61731,-73.97033
NTA2010,Neighborhood Tabulation Area,4750,Canarsie,2,Brooklyn,40.63804,-73.89975
NTA2010,Neighborhood Tabulation Area,4758,Flatlands,2,Brooklyn,40.62627,-73.9301
NTA2010,Neighborhood Tabulation Area,4760,Prospect Lefferts Gardens-Wingate,2,Brooklyn,40.65874,-73.94744
NTA2010,Neighborhood Tabulation Area,4761,Crown Heights North,2,Brooklyn,40.67447,-73.93929
NTA2010,Neighborhood Tabulation Area,4763,Crown Heights South,2,Brooklyn,40.66654,-73.94878
NTA2010,Neighborhood Tabulation Area,4764,Prospect Heights,2,Brooklyn,40.67764,-73.96759
NTA2010,Neighborhood Tabulation Area,4768,Fort Greene,2,Brooklyn,40.69079,-73.97488
NTA2010,Neighborhood Tabulation Area,4769,Clinton Hill,2,Brooklyn,40.68797,-73.96236
NTA2010,Neighborhood Tabulation Area,4772,Williamsburg,2,Brooklyn,40.70392,-73.9586
NTA2010,Neighborhood Tabulation Area,4773,North Side-South Side,2,Brooklyn,40.71492,-73.95862
NTA2010,Neighborhood Tabulation Area,4775,Bedford,2,Brooklyn,40.69151,-73.9499
NTA2010,Neighborhood Tabulation Area,4776,Greenpoint,2,Brooklyn,40.7295,-73.94952
NTA2010,Neighborhood Tabulation Area,4777,Bushwick North,2,Brooklyn,40.70056,-73.91777
NTA2010,Neighborhood Tabulation Area,4778,Bushwick South,2,Brooklyn,40.69646,-73.92511
NTA2010,Neighborhood Tabulation Area,4779,Ocean Hill,2,Brooklyn,40.67664,-73.91365
NTA2010,Neighborhood Tabulation Area,4781,Brownsville,2,Brooklyn,40.664,-73.91025
NTA2010,Neighborhood Tabulation Area,4782,East New York,2,Brooklyn,40.66095,-73.87684
NTA2010,Neighborhood Tabulation Area,4783,Cypress Hills-City Line,2,Brooklyn,40.68218,-73.87833
NTA2010,Neighborhood Tabulation Area,4785,East New York (Pennsylvania Ave),2,Brooklyn,40.66656,-73.89536
NTA2010,Neighborhood Tabulation Area,4788,Borough Park,2,Brooklyn,40.63095,-73.98866
NTA2010,Neighborhood Tabulation Area,4790,East Williamsburg,2,Brooklyn,40.71537,-73.9368
NTA2010,Neighborhood Tabulation Area,4791,East Flatbush-Farragut,2,Brooklyn,40.64395,-73.93793
NTA2010,Neighborhood Tabulation Area,4793,Starrett City,2,Brooklyn,40.64753,-73.88241
NTA2010,Neighborhood Tabulation Area,4795,Erasmus,2,Brooklyn,40.64611,-73.95162
NTA2010,Neighborhood Tabulation Area,4796,Rugby-Remsen Village,2,Brooklyn,40.65237,-73.92225
NTA2010,Neighborhood Tabulation Area,4799,park-cemetery-etc-Brooklyn,2,Brooklyn,40.62308,-73.91956
NTA2010,Neighborhood Tabulation Area,6101,Marble Hill-Inwood,3,Manhattan,40.86788,-73.91766
NTA2010,Neighborhood Tabulation Area,6103,Central Harlem North-Polo Grounds,3,Manhattan,40.81826,-73.94077
NTA2010,Neighborhood Tabulation Area,6104,Hamilton Heights,3,Manhattan,40.82702,-73.94847
NTA2010,Neighborhood Tabulation Area,6106,Manhattanville,3,Manhattan,40.81802,-73.95382
NTA2010,Neighborhood Tabulation Area,6109,Morningside Heights,3,Manhattan,40.80789,-73.96254
NTA2010,Neighborhood Tabulation Area,6111,Central Harlem South,3,Manhattan,40.80433,-73.95129
NTA2010,Neighborhood Tabulation Area,6112,Upper West Side,3,Manhattan,40.79038,-73.97391
NTA2010,Neighborhood Tabulation Area,6113,Hudson Yards-Chelsea-Flatiron-Union Square,3,Manhattan,40.74758,-73.99902
NTA2010,Neighborhood Tabulation Area,6114,Lincoln Square,3,Manhattan,40.77485,-73.9847
NTA2010,Neighborhood Tabulation Area,6115,Clinton,3,Manhattan,40.76416,-73.9924
NTA2010,Neighborhood Tabulation Area,6117,Midtown-Midtown South,3,Manhattan,40.75573,-73.9835
NTA2010,Neighborhood Tabulation Area,6119,Turtle Bay-East Midtown,3,Manhattan,40.75431,-73.96902
NTA2010,Neighborhood Tabulation Area,6120,Murray Hill-Kips Bay,3,Manhattan,40.74421,-73.97751
NTA2010,Neighborhood Tabulation Area,6121,Gramercy,3,Manhattan,40.73682,-73.98405
NTA2010,Neighborhood Tabulation Area,6122,East Village,3,Manhattan,40.72762,-73.98593
NTA2010,Neighborhood Tabulation Area,6123,West Village,3,Manhattan,40.73302,-74.00152
NTA2010,Neighborhood Tabulation Area,6124,SoHo-TriBeCa-Civic Center-Little Italy,3,Manhattan,40.72077,-74.00475
NTA2010,Neighborhood Tabulation Area,6125,Battery Park City-Lower Manhattan,3,Manhattan,40.70801,-74.01025
NTA2010,Neighborhood Tabulation Area,6127,Chinatown,3,Manhattan,40.71561,-73.99463
NTA2010,Neighborhood Tabulation Area,6128,Lower East Side,3,Manhattan,40.71784,-73.98091
NTA2010,Neighborhood Tabulation Area,6131,Lenox Hill-Roosevelt Island,3,Manhattan,40.76496,-73.95509
NTA2010,Neighborhood Tabulation Area,6132,Yorkville,3,Manhattan,40.77732,-73.94868
NTA2010,Neighborhood Tabulation Area,6133,East Harlem South,3,Manhattan,40.79001,-73.94575
NTA2010,Neighborhood Tabulation Area,6134,East Harlem North,3,Manhattan,40.80117,-73.93735
NTA2010,Neighborhood Tabulation Area,6135,Washington Heights North,3,Manhattan,40.85711,-73.93283
NTA2010,Neighborhood Tabulation Area,6136,Washington Heights South,3,Manhattan,40.8417,-73.94141
NTA2010,Neighborhood Tabulation Area,6140,Upper East Side-Carnegie Hill,3,Manhattan,40.77473,-73.96118
NTA2010,Neighborhood Tabulation Area,6150,Stuyvesant Town-Cooper Village,3,Manhattan,40.73181,-73.97658
NTA2010,Neighborhood Tabulation Area,6199,park-cemetery-etc-Manhattan,3,Manhattan,40.78793,-73.95483
NTA2010,Neighborhood Tabulation Area,8101,South Jamaica,4,Queens,40.69443,-73.79096
NTA2010,Neighborhood Tabulation Area,8102,Springfield Gardens North,4,Queens,40.67209,-73.77304
NTA2010,Neighborhood Tabulation Area,8103,Springfield Gardens South-Brookville,4,Queens,40.66219,-73.76449
NTA2010,Neighborhood Tabulation Area,8105,Rosedale,4,Queens,40.65784,-73.73946
NTA2010,Neighborhood Tabulation Area,8106,Jamaica Estates-Holliswood,4,Queens,40.72066,-73.7761
NTA2010,Neighborhood Tabulation Area,8107,Hollis,4,Queens,40.71064,-73.76114
NTA2010,Neighborhood Tabulation Area,8108,St. Albans,4,Queens,40.6912,-73.76315
NTA2010,Neighborhood Tabulation Area,8110,Breezy Point-Belle Harbor-Rockaway Park-Broad Channel,4,Queens,40.57149,-73.87648
NTA2010,Neighborhood Tabulation Area,8112,Hammels-Arverne-Edgemere,4,Queens,40.59406,-73.78962
NTA2010,Neighborhood Tabulation Area,8115,Far Rockaway-Bayswater,4,Queens,40.60245,-73.75531
NTA2010,Neighborhood Tabulation Area,8117,Forest Hills,4,Queens,40.72143,-73.84767
NTA2010,Neighborhood Tabulation Area,8118,Rego Park,4,Queens,40.72616,-73.86334
NTA2010,Neighborhood Tabulation Area,8119,Glendale,4,Queens,40.70354,-73.87575
NTA2010,Neighborhood Tabulation Area,8120,Ridgewood,4,Queens,40.70653,-73.90172
NTA2010,Neighborhood Tabulation Area,8121,Middle Village,4,Queens,40.71834,-73.88005
NTA2010,Neighborhood Tabulation Area,8122,Flushing,4,Queens,40.76109,-73.82887
NTA2010,Neighborhood Tabulation Area,8123,College Point,4,Queens,40.78092,-73.84281
NTA2010,Neighborhood Tabulation Area,8125,Corona,4,Queens,40.74235,-73.85837
NTA2010,Neighborhood Tabulation Area,8126,North Corona,4,Queens,40.75258,-73.86304
NTA2010,Neighborhood Tabulation Area,8127,East Elmhurst,4,Queens,40.76335,-73.86839
NTA2010,Neighborhood Tabulation Area,8128,Jackson Heights,4,Queens,40.75731,-73.88532
NTA2010,Neighborhood Tabulation Area,8129,Elmhurst,4,Queens,40.73949,-73.87712
NTA2010,Neighborhood Tabulation Area,8130,Maspeth,4,Queens,40.72399,-73.90233
NTA2010,Neighborhood Tabulation Area,8131,Hunters Point-Sunnyside-West Maspeth,4,Queens,40.73977,-73.93121
NTA2010,Neighborhood Tabulation Area,8133,Cambria Heights,4,Queens,40.69434,-73.73555
NTA2010,Neighborhood Tabulation Area,8134,Queens Village,4,Queens,40.71545,-73.74153
NTA2010,Neighborhood Tabulation Area,8135,Briarwood-Jamaica Hills,4,Queens,40.71158,-73.80866
NTA2010,Neighborhood Tabulation Area,8137,Kew Gardens Hills,4,Queens,40.7264,-73.81867
NTA2010,Neighborhood Tabulation Area,8138,Pomonok-Flushing Heights-Hillcrest,4,Queens,40.72833,-73.80244
NTA2010,Neighborhood Tabulation Area,8141,Fresh Meadows-Utopia,4,Queens,40.73489,-73.78372
NTA2010,Neighborhood Tabulation Area,8142,Oakland Gardens,4,Queens,40.74267,-73.75462
NTA2010,Neighborhood Tabulation Area,8143,Bellerose,4,Queens,40.73549,-73.72666
NTA2010,Neighborhood Tabulation Area,8144,Glen Oaks-Floral Park-New Hyde Park,4,Queens,40.74599,-73.71102
NTA2010,Neighborhood Tabulation Area,8145,Douglas Manor-Douglaston-Little Neck,4,Queens,40.76373,-73.73694
NTA2010,Neighborhood Tabulation Area,8146,Bayside-Bayside Hills,4,Queens,40.76273,-73.77343
NTA2010,Neighborhood Tabulation Area,8147,Ft. Totten-Bay Terrace-Clearview,4,Queens,40.78333,-73.78596
NTA2010,Neighborhood Tabulation Area,8148,Auburndale,4,Queens,40.75103,-73.78795
NTA2010,Neighborhood Tabulation Area,8149,Whitestone,4,Queens,40.78819,-73.81564
NTA2010,Neighborhood Tabulation Area,8150,Elmhurst-Maspeth,4,Queens,40.73832,-73.89218
NTA2010,Neighborhood Tabulation Area,8151,Murray Hill,4,Queens,40.76835,-73.80955
NTA2010,Neighborhood Tabulation Area,8152,East Flushing,4,Queens,40.75411,-73.80729
NTA2010,Neighborhood Tabulation Area,8153,Woodhaven,4,Queens,40.68873,-73.85576
NTA2010,Neighborhood Tabulation Area,8154,Richmond Hill,4,Queens,40.69454,-73.83093
NTA2010,Neighborhood Tabulation Area,8155,South Ozone Park,4,Queens,40.67615,-73.81946
NTA2010,Neighborhood Tabulation Area,8156,Ozone Park,4,Queens,40.6756,-73.84705
NTA2010,Neighborhood Tabulation Area,8157,Lindenwood-Howard Beach,4,Queens,40.65817,-73.84489
NTA2010,Neighborhood Tabulation Area,8160,Kew Gardens,4,Queens,40.70804,-73.82871
NTA2010,Neighborhood Tabulation Area,8161,Jamaica,4,Queens,40.70437,-73.79398
NTA2010,Neighborhood Tabulation Area,8162,Queensboro Hill,4,Queens,40.74308,-73.81964
NTA2010,Neighborhood Tabulation Area,8163,Woodside,4,Queens,40.74928,-73.90373
NTA2010,Neighborhood Tabulation Area,8166,Laurelton,4,Queens,40.67592,-73.74453
NTA2010,Neighborhood Tabulation Area,8168,Queensbridge-Ravenswood-Long Island City,4,Queens,40.75756,-73.93875
NTA2010,Neighborhood Tabulation Area,8170,Astoria,4,Queens,40.76149,-73.9197
NTA2010,Neighborhood Tabulation Area,8171,Old Astoria,4,Queens,40.77157,-73.92833
NTA2010,Neighborhood Tabulation Area,8172,Steinway,4,Queens,40.77742,-73.90541
NTA2010,Neighborhood Tabulation Area,8176,Baisley Park,4,Queens,40.67895,-73.79099
NTA2010,Neighborhood Tabulation Area,8198,Airport,4,Queens,40.66459,-73.79857
NTA2010,Neighborhood Tabulation Area,8199,park-cemetery-etc-Queens,4,Queens,40.68997,-73.8326
NTA2010,Neighborhood Tabulation Area,8501,Annadale-Huguenot-Prince's Bay-Eltingville,5,Staten Island,40.52864,-74.18774
NTA2010,Neighborhood Tabulation Area,8505,New Springville-Bloomfield-Travis,5,Staten Island,40.59586,-74.17637
NTA2010,Neighborhood Tabulation Area,8507,Westerleigh,5,Staten Island,40.61688,-74.12535
NTA2010,Neighborhood Tabulation Area,8508,Grymes Hill-Clifton-Fox Hills,5,Staten Island,40.61797,-74.08784
NTA2010,Neighborhood Tabulation Area,8511,Charleston-Richmond Valley-Tottenville,5,Staten Island,40.52552,-74.23356
NTA2010,Neighborhood Tabulation Area,8512,Mariner's Harbor-Arlington-Port Ivory-Graniteville,5,Staten Island,40.63131,-74.16737
NTA2010,Neighborhood Tabulation Area,8514,Grasmere-Arrochar-Ft. Wadsworth,5,Staten Island,40.60032,-74.07178
NTA2010,Neighborhood Tabulation Area,8522,West New Brighton-New Brighton-St. George,5,Staten Island,40.63897,-74.10231
NTA2010,Neighborhood Tabulation Area,8524,Todt Hill-Emerson Hill-Heartland Village-Lighthouse Hill,5,Staten Island,40.58656,-74.13298
NTA2010,Neighborhood Tabulation Area,8525,Oakwood-Oakwood Beach,5,Staten Island,40.562,-74.12259
NTA2010,Neighborhood Tabulation Area,8528,Port Richmond,5,Staten Island,40.62817,-74.14079
NTA2010,Neighborhood Tabulation Area,8532,Rossville-Woodrow,5,Staten Island,40.54033,-74.20783
NTA2010,Neighborhood Tabulation Area,8535,New Brighton-Silver Lake,5,Staten Island,40.63005,-74.10286
NTA2010,Neighborhood Tabulation Area,8536,Old Town-Dongan Hills-South Beach,5,Staten Island,40.58679,-74.08551
NTA2010,Neighborhood Tabulation Area,8537,Stapleton-Rosebank,5,Staten Island,40.61872,-74.0737
NTA2010,Neighborhood Tabulation Area,8545,New Dorp-Midland Beach,5,Staten Island,40.57177,-74.10501
NTA2010,Neighborhood Tabulation Area,8548,Arden Heights,5,Staten Island,40.55266,-74.18848
NTA2010,Neighborhood Tabulation Area,8554,Great Kills,5,Staten Island,40.55186,-74.15089
NTA2010,Neighborhood Tabulation Area,8599,park-cemetery-etc-Staten Island,5,Staten Island,40.54578,-74.12835
NTA2020,Neighborhood Tabulation Area,50101,Mott Haven-Port Morris,1,Bronx,40.80752,-73.91724
NTA2020,Neighborhood Tabulation Area,50102,Melrose,1,Bronx,40.81826,-73.91285
NTA2020,Neighborhood Tabulation Area,50201,Hunts Point,1,Bronx,40.81086,-73.88498
NTA2020,Neighborhood Tabulation Area,50202,Longwood,1,Bronx,40.82098,-73.89656
NTA2020,Neighborhood Tabulation Area,50301,Morrisania,1,Bronx,40.82729,-73.90474
NTA2020,Neighborhood Tabulation Area,50302,Claremont Village-Claremont (East),1,Bronx,40.83758,-73.90354
NTA2020,Neighborhood Tabulation Area,50303,Crotona Park East,1,Bronx,40.83214,-73.8887
NTA2020,Neighborhood Tabulation Area,50401,Concourse-Concourse Village,1,Bronx,40.82675,-73.92172
NTA2020,Neighborhood Tabulation Area,50402,Highbridge,1,Bronx,40.83686,-73.92776
NTA2020,Neighborhood Tabulation Area,50403,Mount Eden-Claremont (West),1,Bronx,40.84048,-73.91443
NTA2020,Neighborhood Tabulation Area,50501,University Heights (South)-Morris Heights,1,Bronx,40.85185,-73.91612
NTA2020,Neighborhood Tabulation Area,50502,Mount Hope,1,Bronx,40.84986,-73.90442
NTA2020,Neighborhood Tabulation Area,50503,Fordham Heights,1,Bronx,40.85873,-73.89913
NTA2020,Neighborhood Tabulation Area,50601,West Farms,1,Bronx,40.84126,-73.87863
NTA2020,Neighborhood Tabulation Area,50602,Tremont,1,Bronx,40.84692,-73.89175
NTA2020,Neighborhood Tabulation Area,50603,Belmont,1,Bronx,40.85761,-73.88705
NTA2020,Neighborhood Tabulation Area,50701,University Heights (North)-Fordham,1,Bronx,40.86457,-73.90475
NTA2020,Neighborhood Tabulation Area,50702,Bedford Park,1,Bronx,40.87356,-73.89079
NTA2020,Neighborhood Tabulation Area,50703,Norwood,1,Bronx,40.87714,-73.87902
NTA2020,Neighborhood Tabulation Area,50801,Kingsbridge Heights-Van Cortlandt Village,1,Bronx,40.87768,-73.89909
NTA2020,Neighborhood Tabulation Area,50802,Kingsbridge-Marble Hill,1,Bronx,40.88084,-73.90573
NTA2020,Neighborhood Tabulation Area,50803,Riverdale-Spuyten Duyvil,1,Bronx,40.89572,-73.90879
NTA2020,Neighborhood Tabulation Area,50901,Soundview-Bruckner-Bronx River,1,Bronx,40.82961,-73.87322
NTA2020,Neighborhood Tabulation Area,50902,Soundview-Clason Point,1,Bronx,40.81611,-73.8591
NTA2020,Neighborhood Tabulation Area,50903,Castle Hill-Unionport,1,Bronx,40.82453,-73.84869
NTA2020,Neighborhood Tabulation Area,50904,Parkchester,1,Bronx,40.83775,-73.85799
NTA2020,Neighborhood Tabulation Area,51001,Westchester Square,1,Bronx,40.83768,-73.84594
NTA2020,Neighborhood Tabulation Area,51002,Throgs Neck-Schuylerville,1,Bronx,40.82553,-73.8206
NTA2020,Neighborhood Tabulation Area,51003,Pelham Bay-Country Club-City Island,1,Bronx,40.84559,-73.81153
NTA2020,Neighborhood Tabulation Area,51004,Co-op City,1,Bronx,40.87231,-73.82627
NTA2020,Neighborhood Tabulation Area,51101,Pelham Parkway-Van Nest,1,Bronx,40.8479,-73.86497
NTA2020,Neighborhood Tabulation Area,51102,Morris Park,1,Bronx,40.85179,-73.85169
NTA2020,Neighborhood Tabulation Area,51103,Pelham Gardens,1,Bronx,40.86425,-73.84669
NTA2020,Neighborhood Tabulation Area,51104,Allerton,1,Bronx,40.86401,-73.8642
NTA2020,Neighborhood Tabulation Area,51201,Williamsbridge-Olinville,1,Bronx,40.88102,-73.86072
NTA2020,Neighborhood Tabulation Area,51202,Eastchester-Edenwald-Baychester,1,Bronx,40.88154,-73.83657
NTA2020,Neighborhood Tabulation Area,51203,Wakefield-Woodlawn,1,Bronx,40.89797,-73.85397
NTA2020,Neighborhood Tabulation Area,470101,Greenpoint,2,Brooklyn,40.7295,-73.94952
NTA2020,Neighborhood Tabulation Area,470102,Williamsburg,2,Brooklyn,40.71492,-73.95862
NTA2020,Neighborhood Tabulation Area,470103,South Williamsburg,2,Brooklyn,40.70324,-73.95666
NTA2020,Neighborhood Tabulation Area,470104,East Williamsburg,2,Brooklyn,40.7133,-73.93649
NTA2020,Neighborhood Tabulation Area,470201,Brooklyn Heights,2,Brooklyn,40.69547,-73.99483
NTA2020,Neighborhood Tabulation Area,470202,Downtown Brooklyn-DUMBO-Boerum Hill,2,Brooklyn,40.6949,-73.985830000000007
NTA2020,Neighborhood Tabulation Area,470203,Fort Greene,2,Brooklyn,40.69117,-73.97436
NTA2020,Neighborhood Tabulation Area,470204,Clinton Hill,2,Brooklyn,40.689,-73.96446
NTA2020,Neighborhood Tabulation Area,470301,Bedford-Stuyvesant (West),2,Brooklyn,40.68896,-73.951
NTA2020,Neighborhood Tabulation Area,470302,Bedford-Stuyvesant (East),2,Brooklyn,40.68662,-73.93179
NTA2020,Neighborhood Tabulation Area,470401,Bushwick (West),2,Brooklyn,40.701,-73.92527
NTA2020,Neighborhood Tabulation Area,470402,Bushwick (East),2,Brooklyn,40.69124,-73.91297
NTA2020,Neighborhood Tabulation Area,470501,Cypress Hills,2,Brooklyn,40.68253,-73.88206
NTA2020,Neighborhood Tabulation Area,470502,East New York (North),2,Brooklyn,40.67248,-73.88948
NTA2020,Neighborhood Tabulation Area,470503,East New York-New Lots,2,Brooklyn,40.65973,-73.88805
NTA2020,Neighborhood Tabulation Area,470504,Spring Creek-Starrett City,2,Brooklyn,40.65101,-73.87639
NTA2020,Neighborhood Tabulation Area,470505,East New York-City Line,2,Brooklyn,40.67054,-73.8661
NTA2020,Neighborhood Tabulation Area,470601,Carroll Gardens-Cobble Hill-Gowanus-Red Hook,2,Brooklyn,40.67812,-74.00007
NTA2020,Neighborhood Tabulation Area,470602,Park Slope,2,Brooklyn,40.67183,-73.97976
NTA2020,Neighborhood Tabulation Area,470701,Windsor Terrace-South Slope,2,Brooklyn,40.65604,-73.98002
NTA2020,Neighborhood Tabulation Area,470702,Sunset Park (West),2,Brooklyn,40.65347,-74.01012
NTA2020,Neighborhood Tabulation Area,470703,Sunset Park (Central),2,Brooklyn,40.64239,-74.00788
NTA2020,Neighborhood Tabulation Area,470801,Prospect Heights,2,Brooklyn,40.6776,-73.96757
NTA2020,Neighborhood Tabulation Area,470802,Crown Heights (North),2,Brooklyn,40.67386,-73.9419
NTA2020,Neighborhood Tabulation Area,470901,Crown Heights (South),2,Brooklyn,40.66675,-73.94601
NTA2020,Neighborhood Tabulation Area,470902,Prospect Lefferts Gardens-Wingate,2,Brooklyn,40.65976,-73.94796
NTA2020,Neighborhood Tabulation Area,471001,Bay Ridge,2,Brooklyn,40.62667,-74.02993
NTA2020,Neighborhood Tabulation Area,471002,Dyker Heights,2,Brooklyn,40.62396,-74.01085
NTA2020,Neighborhood Tabulation Area,471101,Bensonhurst,2,Brooklyn,40.61326,-73.99327
NTA2020,Neighborhood Tabulation Area,471102,Bath Beach,2,Brooklyn,40.60426,-74.00748
NTA2020,Neighborhood Tabulation Area,471103,Gravesend (West),2,Brooklyn,40.59929,-73.98573
NTA2020,Neighborhood Tabulation Area,471201,Sunset Park (East)-Borough Park (West),2,Brooklyn,40.64083,-73.99939
NTA2020,Neighborhood Tabulation Area,471202,Borough Park,2,Brooklyn,40.63294,-73.98955
NTA2020,Neighborhood Tabulation Area,471203,Kensington,2,Brooklyn,40.64114,-73.97605
NTA2020,Neighborhood Tabulation Area,471204,Mapleton-Midwood (West),2,Brooklyn,40.61932,-73.97332
NTA2020,Neighborhood Tabulation Area,471301,Gravesend (South),2,Brooklyn,40.58798,-73.97796
NTA2020,Neighborhood Tabulation Area,471302,Coney Island-Sea Gate,2,Brooklyn,40.57696,-73.98795
NTA2020,Neighborhood Tabulation Area,471303,Brighton Beach,2,Brooklyn,40.57908,-73.96069
NTA2020,Neighborhood Tabulation Area,471401,Flatbush,2,Brooklyn,40.64067,-73.95639
NTA2020,Neighborhood Tabulation Area,471402,Flatbush (West)-Ditmas Park-Parkville,2,Brooklyn,40.63653,-73.96619
NTA2020,Neighborhood Tabulation Area,471403,Midwood,2,Brooklyn,40.62037,-73.95559
NTA2020,Neighborhood Tabulation Area,471501,Gravesend (East)-Homecrest,2,Brooklyn,40.59908,-73.96587
NTA2020,Neighborhood Tabulation Area,471502,Madison,2,Brooklyn,40.60491,-73.94814
NTA2020,Neighborhood Tabulation Area,471503,Sheepshead Bay-Manhattan Beach-Gerritsen Beach,2,Brooklyn,40.5883,-73.9415
NTA2020,Neighborhood Tabulation Area,471601,Ocean Hill,2,Brooklyn,40.67664,-73.91365
NTA2020,Neighborhood Tabulation Area,471602,Brownsville,2,Brooklyn,40.66405,-73.90952
NTA2020,Neighborhood Tabulation Area,471701,East Flatbush-Erasmus,2,Brooklyn,40.64855,-73.95014
NTA2020,Neighborhood Tabulation Area,471702,East Flatbush-Farragut,2,Brooklyn,40.63915,-73.93764
NTA2020,Neighborhood Tabulation Area,471703,East Flatbush-Rugby,2,Brooklyn,40.65155,-73.92975
NTA2020,Neighborhood Tabulation Area,471704,East Flatbush-Remsen Village,2,Brooklyn,40.65622,-73.91917
NTA2020,Neighborhood Tabulation Area,471801,Flatlands,2,Brooklyn,40.62627,-73.9301
NTA2020,Neighborhood Tabulation Area,471802,Marine Park-Mill Basin-Bergen Beach,2,Brooklyn,40.61498,-73.91854
NTA2020,Neighborhood Tabulation Area,471803,Canarsie,2,Brooklyn,40.63935,-73.90146
NTA2020,Neighborhood Tabulation Area,610101,Financial District-Battery Park City,3,Manhattan,40.70807,-74.01021
NTA2020,Neighborhood Tabulation Area,610102,Tribeca-Civic Center,3,Manhattan,40.71731,-74.00723
NTA2020,Neighborhood Tabulation Area,610201,SoHo-Little Italy-Hudson Square,3,Manhattan,40.72354,-74.00172
NTA2020,Neighborhood Tabulation Area,610202,Greenwich Village,3,Manhattan,40.73068,-73.99568
NTA2020,Neighborhood Tabulation Area,610203,West Village,3,Manhattan,40.73475,-74.00585
NTA2020,Neighborhood Tabulation Area,610301,Chinatown-Two Bridges,3,Manhattan,40.71286,-73.99366
NTA2020,Neighborhood Tabulation Area,610302,Lower East Side,3,Manhattan,40.71696,-73.98384
NTA2020,Neighborhood Tabulation Area,610303,East Village,3,Manhattan,40.72596,-73.98209
NTA2020,Neighborhood Tabulation Area,610401,Chelsea-Hudson Yards,3,Manhattan,40.74938,-74.00115
NTA2020,Neighborhood Tabulation Area,610402,Hell's Kitchen,3,Manhattan,40.76417,-73.9924
NTA2020,Neighborhood Tabulation Area,610501,Midtown South-Flatiron-Union Square,3,Manhattan,40.74404,-73.98975
NTA2020,Neighborhood Tabulation Area,610502,Midtown-Times Square,3,Manhattan,40.7578,-73.98161
NTA2020,Neighborhood Tabulation Area,610601,Stuyvesant Town-Peter Cooper Village,3,Manhattan,40.73181,-73.97658
NTA2020,Neighborhood Tabulation Area,610602,Gramercy,3,Manhattan,40.73682,-73.98405
NTA2020,Neighborhood Tabulation Area,610603,Murray Hill-Kips Bay,3,Manhattan,40.74425,-73.97595
NTA2020,Neighborhood Tabulation Area,610604,East Midtown-Turtle Bay,3,Manhattan,40.75613,-73.9685
NTA2020,Neighborhood Tabulation Area,610701,Upper West Side-Lincoln Square,3,Manhattan,40.77485,-73.98469
NTA2020,Neighborhood Tabulation Area,610702,Upper West Side (Central),3,Manhattan,40.7877,-73.97593
NTA2020,Neighborhood Tabulation Area,610703,Upper West Side-Manhattan Valley,3,Manhattan,40.79925,-73.96731
NTA2020,Neighborhood Tabulation Area,610801,Upper East Side-Lenox Hill-Roosevelt Island,3,Manhattan,40.76497,-73.95509
NTA2020,Neighborhood Tabulation Area,610802,Upper East Side-Carnegie Hill,3,Manhattan,40.77473,-73.96118
NTA2020,Neighborhood Tabulation Area,610803,Upper East Side-Yorkville,3,Manhattan,40.77732,-73.94868
NTA2020,Neighborhood Tabulation Area,610901,Morningside Heights,3,Manhattan,40.80946,-73.96176
NTA2020,Neighborhood Tabulation Area,610902,Manhattanville-West Harlem,3,Manhattan,40.81802,-73.95382
NTA2020,Neighborhood Tabulation Area,610903,Hamilton Heights-Sugar Hill,3,Manhattan,40.82702,-73.94847
NTA2020,Neighborhood Tabulation Area,611001,Harlem (South),3,Manhattan,40.80433,-73.95129
NTA2020,Neighborhood Tabulation Area,611002,Harlem (North),3,Manhattan,40.81893,-73.94091
NTA2020,Neighborhood Tabulation Area,611101,East Harlem (South),3,Manhattan,40.79001,-73.94575
NTA2020,Neighborhood Tabulation Area,611102,East Harlem (North),3,Manhattan,40.80161,-73.93743
NTA2020,Neighborhood Tabulation Area,611201,Washington Heights (South),3,Manhattan,40.8409,-73.94154
NTA2020,Neighborhood Tabulation Area,611202,Washington Heights (North),3,Manhattan,40.85647,-73.93345
NTA2020,Neighborhood Tabulation Area,611203,Inwood,3,Manhattan,40.86605,-73.91932
NTA2020,Neighborhood Tabulation Area,810101,Astoria (North)-Ditmars-Steinway,4,Queens,40.77741,-73.90526
NTA2020,Neighborhood Tabulation Area,810102,Old Astoria-Hallets Point,4,Queens,40.77209,-73.93142
NTA2020,Neighborhood Tabulation Area,810103,Astoria (Central),4,Queens,40.76428,-73.92306
NTA2020,Neighborhood Tabulation Area,810104,Astoria (East)-Woodside (North),4,Queens,40.75956,-73.91031
NTA2020,Neighborhood Tabulation Area,810105,Queensbridge-Ravenswood-Dutch Kills,4,Queens,40.75832,-73.93793
NTA2020,Neighborhood Tabulation Area,810201,Long Island City-Hunters Point,4,Queens,40.74538,-73.94891
NTA2020,Neighborhood Tabulation Area,810202,Sunnyside,4,Queens,40.73842,-73.92644
NTA2020,Neighborhood Tabulation Area,810203,Woodside,4,Queens,40.7431,-73.90141
NTA2020,Neighborhood Tabulation Area,810301,Jackson Heights,4,Queens,40.75552,-73.88634
NTA2020,Neighborhood Tabulation Area,810302,East Elmhurst,4,Queens,40.76408,-73.8722
NTA2020,Neighborhood Tabulation Area,810303,North Corona,4,Queens,40.75405,-73.86285
NTA2020,Neighborhood Tabulation Area,810401,Elmhurst,4,Queens,40.7394,-73.87911
NTA2020,Neighborhood Tabulation Area,810402,Corona,4,Queens,40.74324,-73.85928
NTA2020,Neighborhood Tabulation Area,810501,Maspeth,4,Queens,40.72306,-73.90512
NTA2020,Neighborhood Tabulation Area,810502,Ridgewood,4,Queens,40.70567,-73.90369
NTA2020,Neighborhood Tabulation Area,810503,Glendale,4,Queens,40.70354,-73.87575
NTA2020,Neighborhood Tabulation Area,810504,Middle Village,4,Queens,40.71922,-73.87813
NTA2020,Neighborhood Tabulation Area,810601,Rego Park,4,Queens,40.72624,-73.86342
NTA2020,Neighborhood Tabulation Area,810602,Forest Hills,4,Queens,40.72145,-73.84768
NTA2020,Neighborhood Tabulation Area,810701,College Point,4,Queens,40.7826,-73.83989
NTA2020,Neighborhood Tabulation Area,810702,Whitestone-Beechhurst,4,Queens,40.78838,-73.81089
NTA2020,Neighborhood Tabulation Area,810703,Bay Terrace-Clearview,4,Queens,40.78186,-73.78758
NTA2020,Neighborhood Tabulation Area,810704,Murray Hill-Broadway Flushing,4,Queens,40.76887,-73.81077
NTA2020,Neighborhood Tabulation Area,810705,East Flushing,4,Queens,40.7538,-73.80807
NTA2020,Neighborhood Tabulation Area,810706,Queensboro Hill,4,Queens,40.7431,-73.81968
NTA2020,Neighborhood Tabulation Area,810707,Flushing-Willets Point,4,Queens,40.76021,-73.83159
NTA2020,Neighborhood Tabulation Area,810801,Kew Gardens Hills,4,Queens,40.72664,-73.81979
NTA2020,Neighborhood Tabulation Area,810802,Pomonok-Electchester-Hillcrest,4,Queens,40.72707,-73.80342
NTA2020,Neighborhood Tabulation Area,810803,Fresh Meadows-Utopia,4,Queens,40.73493,-73.78624
NTA2020,Neighborhood Tabulation Area,810804,Jamaica Estates-Holliswood,4,Queens,40.72073,-73.77761
NTA2020,Neighborhood Tabulation Area,810805,Jamaica Hills-Briarwood,4,Queens,40.71188,-73.80883
NTA2020,Neighborhood Tabulation Area,810901,Kew Gardens,4,Queens,40.70803,-73.82876
NTA2020,Neighborhood Tabulation Area,810902,Richmond Hill,4,Queens,40.69748,-73.83277
NTA2020,Neighborhood Tabulation Area,810903,South Richmond Hill,4,Queens,40.69133,-73.82487
NTA2020,Neighborhood Tabulation Area,810904,Ozone Park (North),4,Queens,40.68456,-73.84937
NTA2020,Neighborhood Tabulation Area,810905,Woodhaven,4,Queens,40.69148,-73.85741
NTA2020,Neighborhood Tabulation Area,811001,South Ozone Park,4,Queens,40.6762,-73.81952
NTA2020,Neighborhood Tabulation Area,811002,Ozone Park,4,Queens,40.67557,-73.84701
NTA2020,Neighborhood Tabulation Area,811003,Howard Beach-Lindenwood,4,Queens,40.66004,-73.84404
NTA2020,Neighborhood Tabulation Area,811101,Auburndale,4,Queens,40.75526,-73.786
NTA2020,Neighborhood Tabulation Area,811102,Bayside,4,Queens,40.76176,-73.7676
NTA2020,Neighborhood Tabulation Area,811103,Douglaston-Little Neck,4,Queens,40.76369,-73.73689
NTA2020,Neighborhood Tabulation Area,811104,Oakland Gardens-Hollis Hills,4,Queens,40.73931,-73.75458
NTA2020,Neighborhood Tabulation Area,811201,Jamaica,4,Queens,40.70402,-73.79558
NTA2020,Neighborhood Tabulation Area,811202,South Jamaica,4,Queens,40.6943,-73.79173
NTA2020,Neighborhood Tabulation Area,811203,Baisley Park,4,Queens,40.67953,-73.78991
NTA2020,Neighborhood Tabulation Area,811204,Springfield Gardens (North)-Rochdale Village,4,Queens,40.67333,-73.77205
NTA2020,Neighborhood Tabulation Area,811205,St. Albans,4,Queens,40.69324,-73.76222
NTA2020,Neighborhood Tabulation Area,811206,Hollis,4,Queens,40.71186,-73.76211
NTA2020,Neighborhood Tabulation Area,811301,Glen Oaks-Floral Park-New Hyde Park,4,Queens,40.74595,-73.71096
NTA2020,Neighborhood Tabulation Area,811302,Bellerose,4,Queens,40.73549,-73.72669
NTA2020,Neighborhood Tabulation Area,811303,Queens Village,4,Queens,40.71608,-73.74175
NTA2020,Neighborhood Tabulation Area,811304,Cambria Heights,4,Queens,40.69434,-73.73555
NTA2020,Neighborhood Tabulation Area,811305,Laurelton,4,Queens,40.67591,-73.74451
NTA2020,Neighborhood Tabulation Area,811306,Springfield Gardens (South)-Brookville,4,Queens,40.66017,-73.76148
NTA2020,Neighborhood Tabulation Area,811307,Rosedale,4,Queens,40.65905,-73.73566
NTA2020,Neighborhood Tabulation Area,811401,Far Rockaway-Bayswater,4,Queens,40.6017,-73.75655
NTA2020,Neighborhood Tabulation Area,811402,Rockaway Beach-Arverne-Edgemere,4,Queens,40.59157,-73.79631
NTA2020,Neighborhood Tabulation Area,811403,Breezy Point-Belle Harbor-Rockaway Park-Broad Channel,4,Queens,40.57818,-73.86057
NTA2020,Neighborhood Tabulation Area,850101,St. George-New Brighton,5,Staten Island,40.64219,-74.08553
NTA2020,Neighborhood Tabulation Area,850102,Tompkinsville-Stapleton-Clifton-Fox Hills,5,Staten Island,40.6261,-74.07884
NTA2020,Neighborhood Tabulation Area,850103,Rosebank-Shore Acres-Park Hill,5,Staten Island,40.61169,-74.07277
NTA2020,Neighborhood Tabulation Area,850104,West New Brighton-Silver Lake-Grymes Hill,5,Staten Island,40.62807,-74.1013
NTA2020,Neighborhood Tabulation Area,850105,Westerleigh-Castleton Corners,5,Staten Island,40.617,-74.1288
NTA2020,Neighborhood Tabulation Area,850106,Port Richmond,5,Staten Island,40.63383,-74.13318
NTA2020,Neighborhood Tabulation Area,850107,Mariner's Harbor-Arlington-Graniteville,5,Staten Island,40.63133,-74.16737
NTA2020,Neighborhood Tabulation Area,850201,Grasmere-Arrochar-South Beach-Dongan Hills,5,Staten Island,40.59354,-74.08127
NTA2020,Neighborhood Tabulation Area,850202,New Dorp-Midland Beach,5,Staten Island,40.57431,-74.10159
NTA2020,Neighborhood Tabulation Area,850203,Todt Hill-Emerson Hill-Lighthouse Hill-Manor Heights,5,Staten Island,40.58965,-74.12827
NTA2020,Neighborhood Tabulation Area,850204,New Springville-Willowbrook-Bulls Head-Travis,5,Staten Island,40.60372,-74.17545
NTA2020,Neighborhood Tabulation Area,850301,Oakwood-Richmondtown,5,Staten Island,40.562,-74.12259
NTA2020,Neighborhood Tabulation Area,850302,Great Kills-Eltingville,5,Staten Island,40.55025,-74.15497
NTA2020,Neighborhood Tabulation Area,850303,Arden Heights-Rossville,5,Staten Island,40.55264,-74.1969
NTA2020,Neighborhood Tabulation Area,850304,Annadale-Huguenot-Prince's Bay-Woodrow,5,Staten Island,40.52839,-74.19804
NTA2020,Neighborhood Tabulation Area,850305,Tottenville-Charleston,5,Staten Island,40.52465,-74.23548
NYCKIDS2017,NYC KIDS,10,Rest of Manhattan,3,Manhattan,40.7713,-73.97327
NYCKIDS2017,NYC KIDS,11,East and Central Harlem Neighborhood Health Action Center,3,Manhattan,40.80469,-73.94064
NYCKIDS2017,NYC KIDS,20,Rest of Bronx,1,Bronx,40.86233,-73.85338
NYCKIDS2017,NYC KIDS,21,South Bronx Neighborhood Health Action Center,1,Bronx,40.82835,-73.90322
NYCKIDS2017,NYC KIDS,30,Rest of Brooklyn,2,Brooklyn,40.63431,-73.95999
NYCKIDS2017,NYC KIDS,31,North and Central Brooklyn Neighborhood Health Action Center,2,Brooklyn,40.67825,-73.913
NYCKIDS2017,NYC KIDS,40,Rest of Queens,4,Queens,40.72424,-73.82792
NYCKIDS2017,NYC KIDS,41,Queens - South Jamaica and Rockaway,4,Queens,40.66057,-73.78578
NYCKIDS2017,NYC KIDS,50,Staten Island,5,Staten Island,40.58152,-74.15334
NYCKIDS2019,NYC KIDS,10,Rest of Manhattan,3,Manhattan,40.77131,-73.97326
NYCKIDS2019,NYC KIDS,11,East Harlem Neighborhood Health Action Center Area,3,Manhattan,40.8047,-73.94064
NYCKIDS2019,NYC KIDS,20,Rest of Bronx,1,Bronx,40.86233,-73.85338
NYCKIDS2019,NYC KIDS,21,Termont Neighborhood Health Action Center Area,1,Bronx,40.82834,-73.90321
NYCKIDS2019,NYC KIDS,30,Rest of Brooklyn,2,Brooklyn,40.63431,-73.95998
NYCKIDS2019,NYC KIDS,31,Brownsville Neighborhood Health Action Center Area,2,Brooklyn,40.67825,-73.913
NYCKIDS2019,NYC KIDS,40,Queens,4,Queens,40.71505,-73.82183
NYCKIDS2019,NYC KIDS,50,Staten Island,5,Staten Island,40.58152,-74.15335
