GeoType,GeoTypeDesc,GeoTypeShortDesc,GeoID,Name,BoroID,Borough,Lat,Long
Citywide,Citywide,Citywide,1,New York City,,,,
Borough,Borough,Borough,1,Bronx,1,Bronx,40.8526,-73.8665
Borough,Borough,Borough,2,Brooklyn,2,Brooklyn,40.6447,-73.9479
Borough,Borough,Borough,3,Manhattan,3,Manhattan,40.7772,-73.9672
Borough,Borough,Borough,4,Queens,4,Queens,40.7076,-73.8185
Borough,Borough,Borough,5,Staten Island,5,Staten Island,40.5808,-74.1534
UHF34,UHF 34,Neighborhood (UHF 34),101,Kingsbridge - Riverdale,1,Bronx,40.8926,-73.9012
UHF34,UHF 34,Neighborhood (UHF 34),102,Northeast Bronx,1,Bronx,40.8806,-73.8448
UHF34,UHF 34,Neighborhood (UHF 34),103,Fordham - Bronx Pk,1,Bronx,40.8721,-73.8807
UHF34,UHF 34,Neighborhood (UHF 34),104,Pelham - Throgs Neck,1,Bronx,40.8405,-73.8338
UHF34,UHF 34,Neighborhood (UHF 34),201,Greenpoint,2,Brooklyn,40.7202,-73.949700000000007
UHF34,UHF 34,Neighborhood (UHF 34),202,Downtown - Heights - Slope,2,Brooklyn,40.6836,-73.9864
UHF34,UHF 34,Neighborhood (UHF 34),203,Bedford Stuyvesant - Crown Heights,2,Brooklyn,40.6735,-73.9334
UHF34,UHF 34,Neighborhood (UHF 34),204,East New York,2,Brooklyn,40.6721,-73.883
UHF34,UHF 34,Neighborhood (UHF 34),205,Sunset Park,2,Brooklyn,40.6477,-74.0091
UHF34,UHF 34,Neighborhood (UHF 34),206,Borough Park,2,Brooklyn,40.6284,-73.9804
UHF34,UHF 34,Neighborhood (UHF 34),207,East Flatbush - Flatbush,2,Brooklyn,40.6464,-73.9484
UHF34,UHF 34,Neighborhood (UHF 34),208,Canarsie - Flatlands,2,Brooklyn,40.6203,-73.9037
UHF34,UHF 34,Neighborhood (UHF 34),209,Bensonhurst - Bay Ridge,2,Brooklyn,40.6118,-74.0126
UHF34,UHF 34,Neighborhood (UHF 34),210,Coney Island - Sheepshead Bay,2,Brooklyn,40.5904,-73.9612
UHF34,UHF 34,Neighborhood (UHF 34),211,Williamsburg - Bushwick,2,Brooklyn,40.6986,-73.9316
UHF34,UHF 34,Neighborhood (UHF 34),301,Washington Heights,3,Manhattan,40.8495,-73.9351
UHF34,UHF 34,Neighborhood (UHF 34),302,Central Harlem - Morningside Heights,3,Manhattan,40.8132,-73.9484
UHF34,UHF 34,Neighborhood (UHF 34),303,East Harlem,3,Manhattan,40.794,-73.935
UHF34,UHF 34,Neighborhood (UHF 34),304,Upper West Side,3,Manhattan,40.7884,-73.9756
UHF34,UHF 34,Neighborhood (UHF 34),401,Long Island City - Astoria,4,Queens,40.7575,-73.9278
UHF34,UHF 34,Neighborhood (UHF 34),402,West Queens,4,Queens,40.7441,-73.8879
UHF34,UHF 34,Neighborhood (UHF 34),403,Flushing - Clearview,4,Queens,40.7707,-73.8151
UHF34,UHF 34,Neighborhood (UHF 34),405,Ridgewood - Forest Hills,4,Queens,40.7112,-73.8723
UHF34,UHF 34,Neighborhood (UHF 34),407,Southwest Queens,4,Queens,40.6795,-73.8355
UHF34,UHF 34,Neighborhood (UHF 34),408,Jamaica,4,Queens,40.696,-73.7831
UHF34,UHF 34,Neighborhood (UHF 34),409,Southeast Queens,4,Queens,40.7022,-73.7371
UHF34,UHF 34,Neighborhood (UHF 34),410,Rockaways,4,Queens,40.59,-73.8228
UHF34,UHF 34,Neighborhood (UHF 34),305307,Upper East Side-Gramercy,3,Manhattan,40.7609,-73.9648
UHF34,UHF 34,Neighborhood (UHF 34),306308,Chelsea-Village  ,3,Manhattan,40.7448,-73.9972
UHF34,UHF 34,Neighborhood (UHF 34),309310,Union Square-Lower Manhattan,3,Manhattan,40.7164,-73.9948
UHF34,UHF 34,Neighborhood (UHF 34),404406,Bayside Little Neck-Fresh Meadows,4,Queens,40.7471,-73.7763
UHF34,UHF 34,Neighborhood (UHF 34),501502,Northern SI,5,Staten Island,40.6178,-74.1076
UHF34,UHF 34,Neighborhood (UHF 34),503504,Southern SI,5,Staten Island,40.5652,-74.1727
UHF34,UHF 34,Neighborhood (UHF 34),105106107,South Bronx,1,Bronx,40.8274,-73.9018
UHF42,UHF 42,Neighborhood (UHF 42),101,Kingsbridge - Riverdale,1,Bronx,40.8926,-73.9012
UHF42,UHF 42,Neighborhood (UHF 42),102,Northeast Bronx,1,Bronx,40.8806,-73.8448
UHF42,UHF 42,Neighborhood (UHF 42),103,Fordham - Bronx Pk,1,Bronx,40.8721,-73.8807
UHF42,UHF 42,Neighborhood (UHF 42),104,Pelham - Throgs Neck,1,Bronx,40.8405,-73.8338
UHF42,UHF 42,Neighborhood (UHF 42),105,Crotona -Tremont,1,Bronx,40.8464,-73.8945
UHF42,UHF 42,Neighborhood (UHF 42),106,High Bridge - Morrisania,1,Bronx,40.8294,-73.9184
UHF42,UHF 42,Neighborhood (UHF 42),107,Hunts Point - Mott Haven,1,Bronx,40.8131,-73.8988
UHF42,UHF 42,Neighborhood (UHF 42),201,Greenpoint,2,Brooklyn,40.7202,-73.949700000000007
UHF42,UHF 42,Neighborhood (UHF 42),202,Downtown - Heights - Slope,2,Brooklyn,40.6836,-73.9864
UHF42,UHF 42,Neighborhood (UHF 42),203,Bedford Stuyvesant - Crown Heights,2,Brooklyn,40.6735,-73.9334
UHF42,UHF 42,Neighborhood (UHF 42),204,East New York,2,Brooklyn,40.6721,-73.883
UHF42,UHF 42,Neighborhood (UHF 42),205,Sunset Park,2,Brooklyn,40.6477,-74.0091
UHF42,UHF 42,Neighborhood (UHF 42),206,Borough Park,2,Brooklyn,40.6284,-73.9804
UHF42,UHF 42,Neighborhood (UHF 42),207,East Flatbush - Flatbush,2,Brooklyn,40.6464,-73.9484
UHF42,UHF 42,Neighborhood (UHF 42),208,Canarsie - Flatlands,2,Brooklyn,40.6203,-73.9037
UHF42,UHF 42,Neighborhood (UHF 42),209,Bensonhurst - Bay Ridge,2,Brooklyn,40.6118,-74.0127
UHF42,UHF 42,Neighborhood (UHF 42),210,Coney Island - Sheepshead Bay,2,Brooklyn,40.5904,-73.9612
UHF42,UHF 42,Neighborhood (UHF 42),211,Williamsburg - Bushwick,2,Brooklyn,40.6986,-73.9316
UHF42,UHF 42,Neighborhood (UHF 42),301,Washington Heights,3,Manhattan,40.8495,-73.9351
UHF42,UHF 42,Neighborhood (UHF 42),302,Central Harlem - Morningside Heights,3,Manhattan,40.8132,-73.9484
UHF42,UHF 42,Neighborhood (UHF 42),303,East Harlem,3,Manhattan,40.794,-73.935
UHF42,UHF 42,Neighborhood (UHF 42),304,Upper West Side,3,Manhattan,40.7884,-73.9755
UHF42,UHF 42,Neighborhood (UHF 42),305,Upper East Side,3,Manhattan,40.7717,-73.9555
UHF42,UHF 42,Neighborhood (UHF 42),306,Chelsea - Clinton,3,Manhattan,40.754,-73.9937
UHF42,UHF 42,Neighborhood (UHF 42),307,Gramercy Park - Murray Hill,3,Manhattan,40.7489,-73.9753
UHF42,UHF 42,Neighborhood (UHF 42),308,Greenwich Village - SoHo,3,Manhattan,40.7265,-74.0042
UHF42,UHF 42,Neighborhood (UHF 42),309,Union Square - Lower East Side,3,Manhattan,40.7233,-73.9847
UHF42,UHF 42,Neighborhood (UHF 42),310,Lower Manhattan,3,Manhattan,40.7052,-74.0114
UHF42,UHF 42,Neighborhood (UHF 42),401,Long Island City - Astoria,4,Queens,40.7575,-73.9278
UHF42,UHF 42,Neighborhood (UHF 42),402,West Queens,4,Queens,40.7464,-73.8877
UHF42,UHF 42,Neighborhood (UHF 42),403,Flushing - Clearview,4,Queens,40.7707,-73.8151
UHF42,UHF 42,Neighborhood (UHF 42),404,Bayside - Little Neck,4,Queens,40.7566,-73.7539
UHF42,UHF 42,Neighborhood (UHF 42),405,Ridgewood - Forest Hills,4,Queens,40.7112,-73.8723
UHF42,UHF 42,Neighborhood (UHF 42),406,Fresh Meadows,4,Queens,40.7337,-73.8075
UHF42,UHF 42,Neighborhood (UHF 42),407,Southwest Queens,4,Queens,40.6795,-73.8355
UHF42,UHF 42,Neighborhood (UHF 42),408,Jamaica,4,Queens,40.696,-73.7831
UHF42,UHF 42,Neighborhood (UHF 42),409,Southeast Queens,4,Queens,40.7022,-73.7371
UHF42,UHF 42,Neighborhood (UHF 42),410,Rockaways,4,Queens,40.59,-73.8228
UHF42,UHF 42,Neighborhood (UHF 42),501,Port Richmond,5,Staten Island,40.6324,-74.1469
UHF42,UHF 42,Neighborhood (UHF 42),502,Stapleton - St. George,5,Staten Island,40.6104,-74.0879
UHF42,UHF 42,Neighborhood (UHF 42),503,Willowbrook,5,Staten Island,40.6003,-74.1612
UHF42,UHF 42,Neighborhood (UHF 42),504,South Beach - Tottenville,5,Staten Island,40.5453,-74.1792
Subboro,Sub-borough/PUMA,Neighborhood (Sub-borough/PUMA),1,Mott Haven/Hunts Point,1,Bronx,40.8092,-73.8991
Subboro,Sub-borough/PUMA,Neighborhood (Sub-borough/PUMA),2,Morrisania/East Tremont,1,Bronx,40.8454,-73.8876
Subboro,Sub-borough/PUMA,Neighborhood (Sub-borough/PUMA),3,Highbridge/South Concourse,1,Bronx,40.8325,-73.9216
Subboro,Sub-borough/PUMA,Neighborhood (Sub-borough/PUMA),4,University Heights/Fordham,1,Bronx,40.8522,-73.9097
Subboro,Sub-borough/PUMA,Neighborhood (Sub-borough/PUMA),5,Kingsbridge Heights/Mosholu,1,Bronx,40.8703,-73.8909
Subboro,Sub-borough/PUMA,Neighborhood (Sub-borough/PUMA),6,Riverdale/Kingsbridge,1,Bronx,40.8894,-73.9049
Subboro,Sub-borough/PUMA,Neighborhood (Sub-borough/PUMA),7,Soundview/Parkchester,1,Bronx,40.8254,-73.8595
Subboro,Sub-borough/PUMA,Neighborhood (Sub-borough/PUMA),8,Throgs Neck/Co-op City,1,Bronx,40.851,-73.8159
Subboro,Sub-borough/PUMA,Neighborhood (Sub-borough/PUMA),9,Pelham Parkway,1,Bronx,40.8562,-73.8525
Subboro,Sub-borough/PUMA,Neighborhood (Sub-borough/PUMA),10,Williamsbridge/Baychester,1,Bronx,40.89,-73.8616
Subboro,Sub-borough/PUMA,Neighborhood (Sub-borough/PUMA),11,Williamsburg/Greenpoint,2,Brooklyn,40.7184,-73.9484
Subboro,Sub-borough/PUMA,Neighborhood (Sub-borough/PUMA),12,Brooklyn Heights/Fort Greene,2,Brooklyn,40.6927,-73.9774
Subboro,Sub-borough/PUMA,Neighborhood (Sub-borough/PUMA),13,Bedford Stuyvesant,2,Brooklyn,40.6899,-73.9411
Subboro,Sub-borough/PUMA,Neighborhood (Sub-borough/PUMA),14,Bushwick,2,Brooklyn,40.697,-73.9206
Subboro,Sub-borough/PUMA,Neighborhood (Sub-borough/PUMA),15,East New York/Starret City,2,Brooklyn,40.665,-73.8775
Subboro,Sub-borough/PUMA,Neighborhood (Sub-borough/PUMA),16,Park Slope/Carroll Gardens,2,Brooklyn,40.6719,-73.9881
Subboro,Sub-borough/PUMA,Neighborhood (Sub-borough/PUMA),17,Sunset Park,2,Brooklyn,40.65,-74.0015
Subboro,Sub-borough/PUMA,Neighborhood (Sub-borough/PUMA),18,N. Crown Heights/Prospect Heights,2,Brooklyn,40.675,-73.944
Subboro,Sub-borough/PUMA,Neighborhood (Sub-borough/PUMA),19,South Crown Heights,2,Brooklyn,40.6614,-73.9479
Subboro,Sub-borough/PUMA,Neighborhood (Sub-borough/PUMA),20,Bay Ridge,2,Brooklyn,40.6229,-74.0239
Subboro,Sub-borough/PUMA,Neighborhood (Sub-borough/PUMA),21,Bensonhurst,2,Brooklyn,40.6069,-73.9936
Subboro,Sub-borough/PUMA,Neighborhood (Sub-borough/PUMA),22,Borough Park,2,Brooklyn,40.6299,-73.9827
Subboro,Sub-borough/PUMA,Neighborhood (Sub-borough/PUMA),23,Coney Island,2,Brooklyn,40.5814,-73.981
Subboro,Sub-borough/PUMA,Neighborhood (Sub-borough/PUMA),24,Flatbush,2,Brooklyn,40.6304,-73.9591
Subboro,Sub-borough/PUMA,Neighborhood (Sub-borough/PUMA),25,Sheepshead Bay/Gravesend,2,Brooklyn,40.595,-73.9487
Subboro,Sub-borough/PUMA,Neighborhood (Sub-borough/PUMA),26,Brownsville/Ocean Hill,2,Brooklyn,40.6682,-73.9072
Subboro,Sub-borough/PUMA,Neighborhood (Sub-borough/PUMA),27,East Flatbush,2,Brooklyn,40.6477,-73.9343
Subboro,Sub-borough/PUMA,Neighborhood (Sub-borough/PUMA),28,Flatlands/Canarsie,2,Brooklyn,40.6155,-73.9038
Subboro,Sub-borough/PUMA,Neighborhood (Sub-borough/PUMA),29,Greenwich Village/Financial District,3,Manhattan,40.7172,-74.0074
Subboro,Sub-borough/PUMA,Neighborhood (Sub-borough/PUMA),30,Lower East Side/Chinatown,3,Manhattan,40.7194,-73.9861
Subboro,Sub-borough/PUMA,Neighborhood (Sub-borough/PUMA),31,Chelsea/Clinton/Midtown,3,Manhattan,40.754,-73.9921
Subboro,Sub-borough/PUMA,Neighborhood (Sub-borough/PUMA),32,Stuyvesant Town/Turtle Bay,3,Manhattan,40.7453,-73.9752
Subboro,Sub-borough/PUMA,Neighborhood (Sub-borough/PUMA),33,Upper West Side,3,Manhattan,40.7842,-73.9722
Subboro,Sub-borough/PUMA,Neighborhood (Sub-borough/PUMA),34,Upper East Side,3,Manhattan,40.7716,-73.9557
Subboro,Sub-borough/PUMA,Neighborhood (Sub-borough/PUMA),35,Morningside Heights/Hamilton Heights,3,Manhattan,40.8167,-73.9557
Subboro,Sub-borough/PUMA,Neighborhood (Sub-borough/PUMA),36,Central Harlem,3,Manhattan,40.8132,-73.9446
Subboro,Sub-borough/PUMA,Neighborhood (Sub-borough/PUMA),37,East Harlem,3,Manhattan,40.7946,-73.9349
Subboro,Sub-borough/PUMA,Neighborhood (Sub-borough/PUMA),38,Washington Heights/Inwood,3,Manhattan,40.8559,-73.9307
Subboro,Sub-borough/PUMA,Neighborhood (Sub-borough/PUMA),39,Astoria,4,Queens,40.7679,-73.918
Subboro,Sub-borough/PUMA,Neighborhood (Sub-borough/PUMA),40,Sunnyside/Woodside,4,Queens,40.7407,-73.9197
Subboro,Sub-borough/PUMA,Neighborhood (Sub-borough/PUMA),41,Jackson Heights,4,Queens,40.7622,-73.8759
Subboro,Sub-borough/PUMA,Neighborhood (Sub-borough/PUMA),42,Elmhurst/Corona,4,Queens,40.7406,-73.8551
Subboro,Sub-borough/PUMA,Neighborhood (Sub-borough/PUMA),43,Middle Village/Ridgewood,4,Queens,40.7104,-73.8895
Subboro,Sub-borough/PUMA,Neighborhood (Sub-borough/PUMA),44,Forest Hills/Rego Park,4,Queens,40.7226,-73.8517
Subboro,Sub-borough/PUMA,Neighborhood (Sub-borough/PUMA),45,Flushing/Whitestone,4,Queens,40.7715,-73.8159
Subboro,Sub-borough/PUMA,Neighborhood (Sub-borough/PUMA),46,Hillcrest/Fresh Meadows,4,Queens,40.7258,-73.7962
Subboro,Sub-borough/PUMA,Neighborhood (Sub-borough/PUMA),47,Kew Gardens/Woodhaven,4,Queens,40.6964,-73.8416
Subboro,Sub-borough/PUMA,Neighborhood (Sub-borough/PUMA),48,Howard Beach/South Ozone Park,4,Queens,40.6693,-73.833
Subboro,Sub-borough/PUMA,Neighborhood (Sub-borough/PUMA),49,Bayside/Little Neck,4,Queens,40.7565,-73.7593
Subboro,Sub-borough/PUMA,Neighborhood (Sub-borough/PUMA),50,Jamaica,4,Queens,40.6916,-73.7787
Subboro,Sub-borough/PUMA,Neighborhood (Sub-borough/PUMA),51,Bellerose/Rosedale,4,Queens,40.6805,-73.755
Subboro,Sub-borough/PUMA,Neighborhood (Sub-borough/PUMA),52,Rockaways,4,Queens,40.591,-73.8246
Subboro,Sub-borough/PUMA,Neighborhood (Sub-borough/PUMA),53,North Shore,5,Staten Island,40.6267,-74.1205
Subboro,Sub-borough/PUMA,Neighborhood (Sub-borough/PUMA),54,Mid Island,5,Staten Island,40.5907,-74.1433
Subboro,Sub-borough/PUMA,Neighborhood (Sub-borough/PUMA),55,South Shore,5,Staten Island,40.5389,-74.1872
CD,Community District,Neighborhood (Community District),101,Financial District (CD1),3,Manhattan,40.7074,-74.012
CD,Community District,Neighborhood (Community District),102,Greenwich Village and Soho (CD2),3,Manhattan,40.7298,-74.0015
CD,Community District,Neighborhood (Community District),103,Lower East Side and Chinatown (CD3),3,Manhattan,40.7196,-73.9855
CD,Community District,Neighborhood (Community District),104,Clinton and Chelsea (CD4),3,Manhattan,40.7554,-73.9975
CD,Community District,Neighborhood (Community District),105,Midtown (CD5),3,Manhattan,40.7523,-73.9841
CD,Community District,Neighborhood (Community District),106,Stuyvesant Town and Turtle Bay (CD6),3,Manhattan,40.7447,-73.9746
CD,Community District,Neighborhood (Community District),107,Upper West Side (CD7),3,Manhattan,40.7872,-73.9761
CD,Community District,Neighborhood (Community District),108,Upper East Side (CD8),3,Manhattan,40.7716,-73.9557
CD,Community District,Neighborhood (Community District),109,Morningside Heights and Hamilton Heights (CD9),3,Manhattan,40.8181,-73.955
CD,Community District,Neighborhood (Community District),110,Central Harlem (CD10),3,Manhattan,40.8137,-73.9447
CD,Community District,Neighborhood (Community District),111,East Harlem (CD11),3,Manhattan,40.7949,-73.935
CD,Community District,Neighborhood (Community District),112,Washington Heights and Inwood (CD12),3,Manhattan,40.8551,-73.9315
CD,Community District,Neighborhood (Community District),201,Mott Haven and Melrose (CD1),1,Bronx,40.8109,-73.9165
CD,Community District,Neighborhood (Community District),202,Hunts Point and Longwood (CD2),1,Bronx,40.8133,-73.8879
CD,Community District,Neighborhood (Community District),203,Morrisania and Crotona (CD3),1,Bronx,40.8326,-73.8987
CD,Community District,Neighborhood (Community District),204,Highbridge and Concourse (CD4),1,Bronx,40.8338,-73.9208
CD,Community District,Neighborhood (Community District),205,Fordham and University Heights (CD5),1,Bronx,40.8527,-73.9096
CD,Community District,Neighborhood (Community District),206,Belmont and East Tremont (CD6),1,Bronx,40.8496,-73.8875
CD,Community District,Neighborhood (Community District),207,Kingsbridge Heights and Bedford (CD7),1,Bronx,40.871,-73.8915
CD,Community District,Neighborhood (Community District),208,Riverdale and Fieldston (CD8),1,Bronx,40.8905,-73.9063
CD,Community District,Neighborhood (Community District),209,Parkchester and Soundview (CD9),1,Bronx,40.8248,-73.8617
CD,Community District,Neighborhood (Community District),210,Throgs Neck and Co-op City (CD10),1,Bronx,40.8386,-73.8218
CD,Community District,Neighborhood (Community District),211,Morris Park and Bronxdale (CD11),1,Bronx,40.8561,-73.8528
CD,Community District,Neighborhood (Community District),212,Williamsbridge and Baychester (CD12),1,Bronx,40.8863,-73.8515
CD,Community District,Neighborhood (Community District),301,Greenpoint and Williamsburg (CD1),2,Brooklyn,40.7168,-73.9472
CD,Community District,Neighborhood (Community District),302,Fort Greene and Brooklyn Heights (CD2),2,Brooklyn,40.6935,-73.9787
CD,Community District,Neighborhood (Community District),303,Bedford Stuyvesant (CD3),2,Brooklyn,40.6877,-73.9406
CD,Community District,Neighborhood (Community District),304,Bushwick (CD4),2,Brooklyn,40.6945,-73.9168
CD,Community District,Neighborhood (Community District),305,East New York and Starrett City (CD5),2,Brooklyn,40.6685,-73.8797
CD,Community District,Neighborhood (Community District),306,Park Slope and Carroll Gardens (CD6),2,Brooklyn,40.6764,-73.9945
CD,Community District,Neighborhood (Community District),307,Sunset Park (CD7),2,Brooklyn,40.652,-74.0011
CD,Community District,Neighborhood (Community District),308,Crown Heights and Prospect Heights (CD8),2,Brooklyn,40.6744,-73.9466
CD,Community District,Neighborhood (Community District),309,South Crown Heights and Lefferts Gardens (CD9),2,Brooklyn,40.6628,-73.9469
CD,Community District,Neighborhood (Community District),310,Bay Ridge and Dyker Heights (CD10),2,Brooklyn,40.6233,-74.0235
CD,Community District,Neighborhood (Community District),311,Bensonhurst (CD11),2,Brooklyn,40.6072,-73.9936
CD,Community District,Neighborhood (Community District),312,Borough Park (CD12),2,Brooklyn,40.6312,-73.9833
CD,Community District,Neighborhood (Community District),313,Coney Island (CD13),2,Brooklyn,40.5806,-73.9821
CD,Community District,Neighborhood (Community District),314,Flatbush and Midwood (CD14),2,Brooklyn,40.6318,-73.9591
CD,Community District,Neighborhood (Community District),315,Sheepshead Bay (CD15),2,Brooklyn,40.5945,-73.9499
CD,Community District,Neighborhood (Community District),316,Brownsville (CD16),2,Brooklyn,40.6682,-73.9109
CD,Community District,Neighborhood (Community District),317,East Flatbush (CD17),2,Brooklyn,40.648,-73.9338
CD,Community District,Neighborhood (Community District),318,Flatlands and Canarsie (CD18),2,Brooklyn,40.624,-73.914
CD,Community District,Neighborhood (Community District),401,Long Island City and Astoria (CD1),4,Queens,40.7702,-73.9134
CD,Community District,Neighborhood (Community District),402,Woodside and Sunnyside (CD2),4,Queens,40.7405,-73.923
CD,Community District,Neighborhood (Community District),403,Jackson Heights (CD3),4,Queens,40.7582,-73.8769
CD,Community District,Neighborhood (Community District),404,Elmhurst and Corona (CD4),4,Queens,40.7408,-73.8715
CD,Community District,Neighborhood (Community District),405,Ridgewood and Maspeth (CD5),4,Queens,40.7108,-73.8905
CD,Community District,Neighborhood (Community District),406,Rego Park and Forest Hills (CD6),4,Queens,40.7222,-73.8513
CD,Community District,Neighborhood (Community District),407,Flushing and Whitestone (CD7),4,Queens,40.7715,-73.816
CD,Community District,Neighborhood (Community District),408,Hillcrest and Fresh Meadows (CD8),4,Queens,40.7262,-73.7974
CD,Community District,Neighborhood (Community District),409,Kew Gardens and Woodhaven (CD9),4,Queens,40.6948,-73.8391
CD,Community District,Neighborhood (Community District),410,South Ozone Park and Howard Beach (CD10),4,Queens,40.6694,-73.8327
CD,Community District,Neighborhood (Community District),411,Bayside and Little Neck (CD11),4,Queens,40.7566,-73.7592
CD,Community District,Neighborhood (Community District),412,Jamaica and Hollis (CD12),4,Queens,40.6916,-73.7784
CD,Community District,Neighborhood (Community District),413,Queens Village (CD13),4,Queens,40.6996,-73.7373
CD,Community District,Neighborhood (Community District),414,Rockaway and Broad Channel (CD14),4,Queens,40.5891,-73.8103
CD,Community District,Neighborhood (Community District),501,St. George and Stapleton (CD1),5,Staten Island,40.6266,-74.1205
CD,Community District,Neighborhood (Community District),502,South Beach and Willowbrook (CD2),5,Staten Island,40.5932,-74.1418
CD,Community District,Neighborhood (Community District),503,Tottenville and Great Kills (CD3),5,Staten Island,40.5412,-74.1903
CDTA2020,Community District Tabulation Area,Neighborhood (CDTA),501,Melrose-Mott Haven-Port Morris (CD 1),1,Bronx,40.8107,-73.9159
CDTA2020,Community District Tabulation Area,Neighborhood (CDTA),502,Longwood-Hunts Point (CD 2),1,Bronx,40.8132,-73.8881
CDTA2020,Community District Tabulation Area,Neighborhood (CDTA),503,Morrisania-Crotona Park East (CD 3),1,Bronx,40.8327,-73.8976
CDTA2020,Community District Tabulation Area,Neighborhood (CDTA),504,Highbridge-Concourse (CD 4),1,Bronx,40.8329,-73.9211
CDTA2020,Community District Tabulation Area,Neighborhood (CDTA),505,Morris Heights-Mount Hope (CD 5),1,Bronx,40.8525,-73.9092
CDTA2020,Community District Tabulation Area,Neighborhood (CDTA),506,Tremont-Belmont-West Farms (CD 6),1,Bronx,40.8494,-73.8865
CDTA2020,Community District Tabulation Area,Neighborhood (CDTA),507,Fordham-Bedford Park-Norwood (CD 7),1,Bronx,40.8717,-73.892
CDTA2020,Community District Tabulation Area,Neighborhood (CDTA),508,Riverdale-Kingsbridge-Marble Hill (CD 8),1,Bronx,40.8913,-73.9071
CDTA2020,Community District Tabulation Area,Neighborhood (CDTA),509,Soundview-Parkchester (CD 9),1,Bronx,40.8242,-73.8609
CDTA2020,Community District Tabulation Area,Neighborhood (CDTA),510,Co-op City-Throgs Neck (CD 10),1,Bronx,40.8383,-73.822
CDTA2020,Community District Tabulation Area,Neighborhood (CDTA),511,Pelham Parkway-Morris Park (CD 11),1,Bronx,40.8565,-73.8526
CDTA2020,Community District Tabulation Area,Neighborhood (CDTA),512,Wakefield-Williamsbridge-Eastchester (CD 12),1,Bronx,40.8867,-73.8513
CDTA2020,Community District Tabulation Area,Neighborhood (CDTA),4701,Williamsburg-Greenpoint (CD 1),2,Brooklyn,40.7168,-73.9472
CDTA2020,Community District Tabulation Area,Neighborhood (CDTA),4702,Downtown Brooklyn-Fort Greene (CD 2),2,Brooklyn,40.6938,-73.9784
CDTA2020,Community District Tabulation Area,Neighborhood (CDTA),4703,Bedford-Stuyvesant (CD 3),2,Brooklyn,40.6877,-73.9409
CDTA2020,Community District Tabulation Area,Neighborhood (CDTA),4704,Bushwick (CD 4),2,Brooklyn,40.6946,-73.9168
CDTA2020,Community District Tabulation Area,Neighborhood (CDTA),4705,East New York-Cypress Hills (CD 5),2,Brooklyn,40.6673,-73.8808
CDTA2020,Community District Tabulation Area,Neighborhood (CDTA),4706,Park Slope-Carroll Gardens (CD 6),2,Brooklyn,40.6762,-73.994
CDTA2020,Community District Tabulation Area,Neighborhood (CDTA),4707,Sunset Park-Windsor Terrace (CD 7),2,Brooklyn,40.6516,-74.0014
CDTA2020,Community District Tabulation Area,Neighborhood (CDTA),4708,Crown Heights (North) (CD 8),2,Brooklyn,40.6745,-73.9471
CDTA2020,Community District Tabulation Area,Neighborhood (CDTA),4709,Crown Heights (South) (CD 9),2,Brooklyn,40.6629,-73.9471
CDTA2020,Community District Tabulation Area,Neighborhood (CDTA),4710,Bay Ridge-Dyker Heights (CD 10),2,Brooklyn,40.6231,-74.0237
CDTA2020,Community District Tabulation Area,Neighborhood (CDTA),4711,Bensonhurst-Bath Beach (CD 11),2,Brooklyn,40.6069,-73.9936
CDTA2020,Community District Tabulation Area,Neighborhood (CDTA),4712,Borough Park-Kensington (CD 12),2,Brooklyn,40.631,-73.9833
CDTA2020,Community District Tabulation Area,Neighborhood (CDTA),4713,Coney Island-Brighton Beach (CD 13),2,Brooklyn,40.5807,-73.9813
CDTA2020,Community District Tabulation Area,Neighborhood (CDTA),4714,Flatbush-Midwood (CD 14),2,Brooklyn,40.6312,-73.9589
CDTA2020,Community District Tabulation Area,Neighborhood (CDTA),4715,Sheepshead Bay-Gravesend (East) (CD 15),2,Brooklyn,40.5949,-73.949700000000007
CDTA2020,Community District Tabulation Area,Neighborhood (CDTA),4716,Ocean Hill-Brownsville (CD 16),2,Brooklyn,40.669,-73.9112
CDTA2020,Community District Tabulation Area,Neighborhood (CDTA),4717,East Flatbush (CD 17),2,Brooklyn,40.6484,-73.9344
CDTA2020,Community District Tabulation Area,Neighborhood (CDTA),4718,Canarsie-Flatlands (CD 18),2,Brooklyn,40.6213,-73.9135
CDTA2020,Community District Tabulation Area,Neighborhood (CDTA),6101,Financial District-Tribeca (CD 1),3,Manhattan,40.7064,-74.0121
CDTA2020,Community District Tabulation Area,Neighborhood (CDTA),6102,Greenwich Village-SoHo (CD 2),3,Manhattan,40.7298,-74.0016
CDTA2020,Community District Tabulation Area,Neighborhood (CDTA),6103,Lower East Side-Chinatown (CD 3),3,Manhattan,40.7196,-73.9855
CDTA2020,Community District Tabulation Area,Neighborhood (CDTA),6104,Chelsea-Hell's Kitchen (CD 4),3,Manhattan,40.755,-73.9978
CDTA2020,Community District Tabulation Area,Neighborhood (CDTA),6105,Midtown-Flatiron-Union Square (CD 5),3,Manhattan,40.7526,-73.9847
CDTA2020,Community District Tabulation Area,Neighborhood (CDTA),6106,East Midtown-Murray Hill (CD 6),3,Manhattan,40.7451,-73.975
CDTA2020,Community District Tabulation Area,Neighborhood (CDTA),6107,Upper West Side (CD 7),3,Manhattan,40.7868,-73.9764
CDTA2020,Community District Tabulation Area,Neighborhood (CDTA),6108,Upper East Side-Roosevelt Island (CD 8),3,Manhattan,40.7716,-73.9557
CDTA2020,Community District Tabulation Area,Neighborhood (CDTA),6109,Morningside Heights-Hamilton Heights (CD 9),3,Manhattan,40.8182,-73.9548
CDTA2020,Community District Tabulation Area,Neighborhood (CDTA),6110,Harlem (CD 10),3,Manhattan,40.8134,-73.9448
CDTA2020,Community District Tabulation Area,Neighborhood (CDTA),6111,East Harlem (CD 11),3,Manhattan,40.7949,-73.935
CDTA2020,Community District Tabulation Area,Neighborhood (CDTA),6112,Washington Heights-Inwood (CD 12),3,Manhattan,40.8551,-73.9315
CDTA2020,Community District Tabulation Area,Neighborhood (CDTA),8101,Astoria-Queensbridge (CD 1),4,Queens,40.7702,-73.9132
CDTA2020,Community District Tabulation Area,Neighborhood (CDTA),8102,Long Island City-Sunnyside-Woodside (CD 2),4,Queens,40.7413,-73.9234
CDTA2020,Community District Tabulation Area,Neighborhood (CDTA),8103,Jackson Heights-East Elmhurst (CD 3),4,Queens,40.7583,-73.8774
CDTA2020,Community District Tabulation Area,Neighborhood (CDTA),8104,Elmhurst-Corona (CD 4),4,Queens,40.7408,-73.8719
CDTA2020,Community District Tabulation Area,Neighborhood (CDTA),8105,Ridgewood-Maspeth-Middle Village (CD 5),4,Queens,40.7112,-73.8912
CDTA2020,Community District Tabulation Area,Neighborhood (CDTA),8106,Forest Hills-Rego Park (CD 6),4,Queens,40.7227,-73.8517
CDTA2020,Community District Tabulation Area,Neighborhood (CDTA),8107,Flushing-Murray Hill-Whitestone (CD 7),4,Queens,40.7715,-73.8159
CDTA2020,Community District Tabulation Area,Neighborhood (CDTA),8108,Fresh Meadows-Hillcrest-Briarwood (CD 8),4,Queens,40.7261,-73.7967
CDTA2020,Community District Tabulation Area,Neighborhood (CDTA),8109,Kew Gardens-Richmond Hill-Woodhaven (CD 9),4,Queens,40.6951,-73.839
CDTA2020,Community District Tabulation Area,Neighborhood (CDTA),8110,South Ozone Park-Howard Beach (CD 10),4,Queens,40.6693,-73.8331
CDTA2020,Community District Tabulation Area,Neighborhood (CDTA),8111,Auburndale-Bayside-Douglaston (CD 11),4,Queens,40.7565,-73.7593
CDTA2020,Community District Tabulation Area,Neighborhood (CDTA),8112,Jamaica-St. Albans-Hollis (CD 12),4,Queens,40.692,-73.7786
CDTA2020,Community District Tabulation Area,Neighborhood (CDTA),8113,Queens Village-Bellerose-Rosedale (CD 13),4,Queens,40.6992,-73.7376
CDTA2020,Community District Tabulation Area,Neighborhood (CDTA),8114,The Rockaways (CD 14),4,Queens,40.5905,-73.8064
CDTA2020,Community District Tabulation Area,Neighborhood (CDTA),8501,North Shore (CD 1),5,Staten Island,40.6266,-74.1204
CDTA2020,Community District Tabulation Area,Neighborhood (CDTA),8502,Mid-Island (CD 2),5,Staten Island,40.5927,-74.1413
CDTA2020,Community District Tabulation Area,Neighborhood (CDTA),8503,South Shore (CD 3),5,Staten Island,40.541,-74.1903
NTA2010,Neighborhood Tabulation Area,Neighborhood (NTA),501,Claremont-Bathgate,1,Bronx,40.8427,-73.9003
NTA2010,Neighborhood Tabulation Area,Neighborhood (NTA),503,Eastchester-Edenwald-Baychester,1,Bronx,40.8809,-73.8366
NTA2010,Neighborhood Tabulation Area,Neighborhood (NTA),505,Bedford Park-Fordham North,1,Bronx,40.8677,-73.8902
NTA2010,Neighborhood Tabulation Area,Neighborhood (NTA),506,Belmont,1,Bronx,40.8578,-73.8859
NTA2010,Neighborhood Tabulation Area,Neighborhood (NTA),507,Bronxdale,1,Bronx,40.864,-73.8649
NTA2010,Neighborhood Tabulation Area,Neighborhood (NTA),508,West Farms-Bronx River,1,Bronx,40.8342,-73.8723
NTA2010,Neighborhood Tabulation Area,Neighborhood (NTA),509,Soundview-Castle Hill-Clason Point-Harding Park,1,Bronx,40.8181,-73.8562
NTA2010,Neighborhood Tabulation Area,Neighborhood (NTA),510,Pelham Bay-Country Club-City Island,1,Bronx,40.8466,-73.8065
NTA2010,Neighborhood Tabulation Area,Neighborhood (NTA),513,Co-op City,1,Bronx,40.874,-73.8283
NTA2010,Neighborhood Tabulation Area,Neighborhood (NTA),514,East Concourse-Concourse Village,1,Bronx,40.8305,-73.9158
NTA2010,Neighborhood Tabulation Area,Neighborhood (NTA),517,East Tremont,1,Bronx,40.845,-73.8855
NTA2010,Neighborhood Tabulation Area,Neighborhood (NTA),522,North Riverdale-Fieldston-Riverdale,1,Bronx,40.8995,-73.907
NTA2010,Neighborhood Tabulation Area,Neighborhood (NTA),526,Highbridge,1,Bronx,40.8378,-73.9262
NTA2010,Neighborhood Tabulation Area,Neighborhood (NTA),527,Hunts Point,1,Bronx,40.8121,-73.8855
NTA2010,Neighborhood Tabulation Area,Neighborhood (NTA),528,Van Cortlandt Village,1,Bronx,40.8765,-73.8956
NTA2010,Neighborhood Tabulation Area,Neighborhood (NTA),529,Spuyten Duyvil-Kingsbridge,1,Bronx,40.8824,-73.9107
NTA2010,Neighborhood Tabulation Area,Neighborhood (NTA),530,Kingsbridge Heights,1,Bronx,40.8653,-73.9059
NTA2010,Neighborhood Tabulation Area,Neighborhood (NTA),531,Allerton-Pelham Gardens,1,Bronx,40.8645,-73.8474
NTA2010,Neighborhood Tabulation Area,Neighborhood (NTA),533,Longwood,1,Bronx,40.8197,-73.899
NTA2010,Neighborhood Tabulation Area,Neighborhood (NTA),534,Melrose South-Mott Haven North,1,Bronx,40.8183,-73.9129
NTA2010,Neighborhood Tabulation Area,Neighborhood (NTA),535,Morrisania-Melrose,1,Bronx,40.8275,-73.9024
NTA2010,Neighborhood Tabulation Area,Neighborhood (NTA),536,University Heights-Morris Heights,1,Bronx,40.8525,-73.916
NTA2010,Neighborhood Tabulation Area,Neighborhood (NTA),537,Van Nest-Morris Park-Westchester Square,1,Bronx,40.8468,-73.8507
NTA2010,Neighborhood Tabulation Area,Neighborhood (NTA),539,Mott Haven-Port Morris,1,Bronx,40.8073,-73.9168
NTA2010,Neighborhood Tabulation Area,Neighborhood (NTA),540,Fordham South,1,Bronx,40.8582,-73.8995
NTA2010,Neighborhood Tabulation Area,Neighborhood (NTA),541,Mount Hope,1,Bronx,40.8491,-73.9051
NTA2010,Neighborhood Tabulation Area,Neighborhood (NTA),543,Norwood,1,Bronx,40.8771,-73.879
NTA2010,Neighborhood Tabulation Area,Neighborhood (NTA),544,Williamsbridge-Olinville,1,Bronx,40.8822,-73.8589
NTA2010,Neighborhood Tabulation Area,Neighborhood (NTA),546,Parkchester,1,Bronx,40.8377,-73.858
NTA2010,Neighborhood Tabulation Area,Neighborhood (NTA),549,Pelham Parkway,1,Bronx,40.8544,-73.8544
NTA2010,Neighborhood Tabulation Area,Neighborhood (NTA),552,Schuylerville-Throgs Neck-Edgewater Park,1,Bronx,40.8233,-73.8236
NTA2010,Neighborhood Tabulation Area,Neighborhood (NTA),555,Soundview-Bruckner,1,Bronx,40.8279,-73.8697
NTA2010,Neighborhood Tabulation Area,Neighborhood (NTA),559,Westchester-Unionport,1,Bronx,40.8321,-73.8486
NTA2010,Neighborhood Tabulation Area,Neighborhood (NTA),562,Woodlawn-Wakefield,1,Bronx,40.8979,-73.8522
NTA2010,Neighborhood Tabulation Area,Neighborhood (NTA),563,West Concourse,1,Bronx,40.829,-73.9244
NTA2010,Neighborhood Tabulation Area,Neighborhood (NTA),575,Crotona Park East,1,Bronx,40.834,-73.8859
NTA2010,Neighborhood Tabulation Area,Neighborhood (NTA),598,Rikers Island,1,Bronx,40.7911,-73.8827
NTA2010,Neighborhood Tabulation Area,Neighborhood (NTA),599,park-cemetery-etc-Bronx,1,Bronx,40.8725,-73.848
NTA2010,Neighborhood Tabulation Area,Neighborhood (NTA),4709,Brooklyn Heights-Cobble Hill,2,Brooklyn,40.6955,-73.9949
NTA2010,Neighborhood Tabulation Area,Neighborhood (NTA),4717,Sheepshead Bay-Gerritsen Beach-Manhattan Beach,2,Brooklyn,40.5883,-73.9415
NTA2010,Neighborhood Tabulation Area,Neighborhood (NTA),4719,Brighton Beach,2,Brooklyn,40.5809,-73.9612
NTA2010,Neighborhood Tabulation Area,Neighborhood (NTA),4721,Seagate-Coney Island,2,Brooklyn,40.5765,-73.9912
NTA2010,Neighborhood Tabulation Area,Neighborhood (NTA),4723,West Brighton,2,Brooklyn,40.5791,-73.9734
NTA2010,Neighborhood Tabulation Area,Neighborhood (NTA),4725,Homecrest,2,Brooklyn,40.6,-73.9643
NTA2010,Neighborhood Tabulation Area,Neighborhood (NTA),4726,Gravesend,2,Brooklyn,40.5884,-73.9814
NTA2010,Neighborhood Tabulation Area,Neighborhood (NTA),4727,Bath Beach,2,Brooklyn,40.6043,-74.0075
NTA2010,Neighborhood Tabulation Area,Neighborhood (NTA),4728,Bensonhurst West,2,Brooklyn,40.6122,-73.9953
NTA2010,Neighborhood Tabulation Area,Neighborhood (NTA),4729,Bensonhurst East,2,Brooklyn,40.6014,-73.9835
NTA2010,Neighborhood Tabulation Area,Neighborhood (NTA),4730,Dyker Heights,2,Brooklyn,40.6224,-74.0121
NTA2010,Neighborhood Tabulation Area,Neighborhood (NTA),4731,Bay Ridge,2,Brooklyn,40.6249,-74.0299
NTA2010,Neighborhood Tabulation Area,Neighborhood (NTA),4732,Sunset Park West,2,Brooklyn,40.6524,-74.0112
NTA2010,Neighborhood Tabulation Area,Neighborhood (NTA),4733,Carroll Gardens-Columbia Street-Red Hook,2,Brooklyn,40.6788,-74.0039
NTA2010,Neighborhood Tabulation Area,Neighborhood (NTA),4734,Sunset Park East,2,Brooklyn,40.6419,-74.0046
NTA2010,Neighborhood Tabulation Area,Neighborhood (NTA),4735,Stuyvesant Heights,2,Brooklyn,40.6882,-73.9319
NTA2010,Neighborhood Tabulation Area,Neighborhood (NTA),4737,Park Slope-Gowanus,2,Brooklyn,40.6712,-73.9839
NTA2010,Neighborhood Tabulation Area,Neighborhood (NTA),4738,DUMBO-Vinegar Hill-Downtown Brooklyn-Boerum Hill,2,Brooklyn,40.6929,-73.986
NTA2010,Neighborhood Tabulation Area,Neighborhood (NTA),4740,Windsor Terrace,2,Brooklyn,40.6536,-73.978
NTA2010,Neighborhood Tabulation Area,Neighborhood (NTA),4741,Kensington-Ocean Parkway,2,Brooklyn,40.6406,-73.9762
NTA2010,Neighborhood Tabulation Area,Neighborhood (NTA),4742,Flatbush,2,Brooklyn,40.6379,-73.961
NTA2010,Neighborhood Tabulation Area,Neighborhood (NTA),4743,Midwood,2,Brooklyn,40.6209,-73.9568
NTA2010,Neighborhood Tabulation Area,Neighborhood (NTA),4744,Madison,2,Brooklyn,40.6049,-73.9481
NTA2010,Neighborhood Tabulation Area,Neighborhood (NTA),4745,Georgetown-Marine Park-Bergen Beach-Mill Basin,2,Brooklyn,40.6146,-73.9152
NTA2010,Neighborhood Tabulation Area,Neighborhood (NTA),4746,Ocean Parkway South,2,Brooklyn,40.6173,-73.9703
NTA2010,Neighborhood Tabulation Area,Neighborhood (NTA),4750,Canarsie,2,Brooklyn,40.638,-73.8998
NTA2010,Neighborhood Tabulation Area,Neighborhood (NTA),4758,Flatlands,2,Brooklyn,40.6263,-73.9301
NTA2010,Neighborhood Tabulation Area,Neighborhood (NTA),4760,Prospect Lefferts Gardens-Wingate,2,Brooklyn,40.6587,-73.9474
NTA2010,Neighborhood Tabulation Area,Neighborhood (NTA),4761,Crown Heights North,2,Brooklyn,40.6745,-73.9393
NTA2010,Neighborhood Tabulation Area,Neighborhood (NTA),4763,Crown Heights South,2,Brooklyn,40.6665,-73.9488
NTA2010,Neighborhood Tabulation Area,Neighborhood (NTA),4764,Prospect Heights,2,Brooklyn,40.6776,-73.9676
NTA2010,Neighborhood Tabulation Area,Neighborhood (NTA),4768,Fort Greene,2,Brooklyn,40.6908,-73.9749
NTA2010,Neighborhood Tabulation Area,Neighborhood (NTA),4769,Clinton Hill,2,Brooklyn,40.688,-73.9624
NTA2010,Neighborhood Tabulation Area,Neighborhood (NTA),4772,Williamsburg,2,Brooklyn,40.7039,-73.9586
NTA2010,Neighborhood Tabulation Area,Neighborhood (NTA),4773,North Side-South Side,2,Brooklyn,40.7149,-73.9586
NTA2010,Neighborhood Tabulation Area,Neighborhood (NTA),4775,Bedford,2,Brooklyn,40.6915,-73.9499
NTA2010,Neighborhood Tabulation Area,Neighborhood (NTA),4776,Greenpoint,2,Brooklyn,40.7295,-73.9495
NTA2010,Neighborhood Tabulation Area,Neighborhood (NTA),4777,Bushwick North,2,Brooklyn,40.7006,-73.9178
NTA2010,Neighborhood Tabulation Area,Neighborhood (NTA),4778,Bushwick South,2,Brooklyn,40.6965,-73.9251
NTA2010,Neighborhood Tabulation Area,Neighborhood (NTA),4779,Ocean Hill,2,Brooklyn,40.6766,-73.9136
NTA2010,Neighborhood Tabulation Area,Neighborhood (NTA),4781,Brownsville,2,Brooklyn,40.664,-73.9103
NTA2010,Neighborhood Tabulation Area,Neighborhood (NTA),4782,East New York,2,Brooklyn,40.6609,-73.8768
NTA2010,Neighborhood Tabulation Area,Neighborhood (NTA),4783,Cypress Hills-City Line,2,Brooklyn,40.6822,-73.8783
NTA2010,Neighborhood Tabulation Area,Neighborhood (NTA),4785,East New York (Pennsylvania Ave),2,Brooklyn,40.6666,-73.8954
NTA2010,Neighborhood Tabulation Area,Neighborhood (NTA),4788,Borough Park,2,Brooklyn,40.6309,-73.9887
NTA2010,Neighborhood Tabulation Area,Neighborhood (NTA),4790,East Williamsburg,2,Brooklyn,40.7154,-73.9368
NTA2010,Neighborhood Tabulation Area,Neighborhood (NTA),4791,East Flatbush-Farragut,2,Brooklyn,40.6439,-73.9379
NTA2010,Neighborhood Tabulation Area,Neighborhood (NTA),4793,Starrett City,2,Brooklyn,40.6475,-73.8824
NTA2010,Neighborhood Tabulation Area,Neighborhood (NTA),4795,Erasmus,2,Brooklyn,40.6461,-73.9516
NTA2010,Neighborhood Tabulation Area,Neighborhood (NTA),4796,Rugby-Remsen Village,2,Brooklyn,40.6524,-73.9223
NTA2010,Neighborhood Tabulation Area,Neighborhood (NTA),4799,park-cemetery-etc-Brooklyn,2,Brooklyn,40.6231,-73.9196
NTA2010,Neighborhood Tabulation Area,Neighborhood (NTA),6101,Marble Hill-Inwood,3,Manhattan,40.8679,-73.9177
NTA2010,Neighborhood Tabulation Area,Neighborhood (NTA),6103,Central Harlem North-Polo Grounds,3,Manhattan,40.8183,-73.9408
NTA2010,Neighborhood Tabulation Area,Neighborhood (NTA),6104,Hamilton Heights,3,Manhattan,40.827,-73.9485
NTA2010,Neighborhood Tabulation Area,Neighborhood (NTA),6106,Manhattanville,3,Manhattan,40.818,-73.9538
NTA2010,Neighborhood Tabulation Area,Neighborhood (NTA),6109,Morningside Heights,3,Manhattan,40.8079,-73.9625
NTA2010,Neighborhood Tabulation Area,Neighborhood (NTA),6111,Central Harlem South,3,Manhattan,40.8043,-73.9513
NTA2010,Neighborhood Tabulation Area,Neighborhood (NTA),6112,Upper West Side,3,Manhattan,40.7904,-73.9739
NTA2010,Neighborhood Tabulation Area,Neighborhood (NTA),6113,Hudson Yards-Chelsea-Flatiron-Union Square,3,Manhattan,40.7476,-73.999
NTA2010,Neighborhood Tabulation Area,Neighborhood (NTA),6114,Lincoln Square,3,Manhattan,40.7748,-73.9847
NTA2010,Neighborhood Tabulation Area,Neighborhood (NTA),6115,Clinton,3,Manhattan,40.7642,-73.9924
NTA2010,Neighborhood Tabulation Area,Neighborhood (NTA),6117,Midtown-Midtown South,3,Manhattan,40.7557,-73.9835
NTA2010,Neighborhood Tabulation Area,Neighborhood (NTA),6119,Turtle Bay-East Midtown,3,Manhattan,40.7543,-73.969
NTA2010,Neighborhood Tabulation Area,Neighborhood (NTA),6120,Murray Hill-Kips Bay,3,Manhattan,40.7442,-73.9775
NTA2010,Neighborhood Tabulation Area,Neighborhood (NTA),6121,Gramercy,3,Manhattan,40.7368,-73.9841
NTA2010,Neighborhood Tabulation Area,Neighborhood (NTA),6122,East Village,3,Manhattan,40.7276,-73.9859
NTA2010,Neighborhood Tabulation Area,Neighborhood (NTA),6123,West Village,3,Manhattan,40.733,-74.0015
NTA2010,Neighborhood Tabulation Area,Neighborhood (NTA),6124,SoHo-TriBeCa-Civic Center-Little Italy,3,Manhattan,40.7208,-74.0047
NTA2010,Neighborhood Tabulation Area,Neighborhood (NTA),6125,Battery Park City-Lower Manhattan,3,Manhattan,40.708,-74.0102
NTA2010,Neighborhood Tabulation Area,Neighborhood (NTA),6127,Chinatown,3,Manhattan,40.7156,-73.9946
NTA2010,Neighborhood Tabulation Area,Neighborhood (NTA),6128,Lower East Side,3,Manhattan,40.7178,-73.9809
NTA2010,Neighborhood Tabulation Area,Neighborhood (NTA),6131,Lenox Hill-Roosevelt Island,3,Manhattan,40.765,-73.9551
NTA2010,Neighborhood Tabulation Area,Neighborhood (NTA),6132,Yorkville,3,Manhattan,40.7773,-73.9487
NTA2010,Neighborhood Tabulation Area,Neighborhood (NTA),6133,East Harlem South,3,Manhattan,40.79,-73.9458
NTA2010,Neighborhood Tabulation Area,Neighborhood (NTA),6134,East Harlem North,3,Manhattan,40.8012,-73.9373
NTA2010,Neighborhood Tabulation Area,Neighborhood (NTA),6135,Washington Heights North,3,Manhattan,40.8571,-73.9328
NTA2010,Neighborhood Tabulation Area,Neighborhood (NTA),6136,Washington Heights South,3,Manhattan,40.8417,-73.9414
NTA2010,Neighborhood Tabulation Area,Neighborhood (NTA),6140,Upper East Side-Carnegie Hill,3,Manhattan,40.7747,-73.9612
NTA2010,Neighborhood Tabulation Area,Neighborhood (NTA),6150,Stuyvesant Town-Cooper Village,3,Manhattan,40.7318,-73.9766
NTA2010,Neighborhood Tabulation Area,Neighborhood (NTA),6199,park-cemetery-etc-Manhattan,3,Manhattan,40.7879,-73.9548
NTA2010,Neighborhood Tabulation Area,Neighborhood (NTA),8101,South Jamaica,4,Queens,40.6944,-73.791
NTA2010,Neighborhood Tabulation Area,Neighborhood (NTA),8102,Springfield Gardens North,4,Queens,40.6721,-73.773
NTA2010,Neighborhood Tabulation Area,Neighborhood (NTA),8103,Springfield Gardens South-Brookville,4,Queens,40.6622,-73.7645
NTA2010,Neighborhood Tabulation Area,Neighborhood (NTA),8105,Rosedale,4,Queens,40.6578,-73.7395
NTA2010,Neighborhood Tabulation Area,Neighborhood (NTA),8106,Jamaica Estates-Holliswood,4,Queens,40.7207,-73.7761
NTA2010,Neighborhood Tabulation Area,Neighborhood (NTA),8107,Hollis,4,Queens,40.7106,-73.7611
NTA2010,Neighborhood Tabulation Area,Neighborhood (NTA),8108,St. Albans,4,Queens,40.6912,-73.7631
NTA2010,Neighborhood Tabulation Area,Neighborhood (NTA),8110,Breezy Point-Belle Harbor-Rockaway Park-Broad Channel,4,Queens,40.5715,-73.8765
NTA2010,Neighborhood Tabulation Area,Neighborhood (NTA),8112,Hammels-Arverne-Edgemere,4,Queens,40.5941,-73.7896
NTA2010,Neighborhood Tabulation Area,Neighborhood (NTA),8115,Far Rockaway-Bayswater,4,Queens,40.6024,-73.7553
NTA2010,Neighborhood Tabulation Area,Neighborhood (NTA),8117,Forest Hills,4,Queens,40.7214,-73.8477
NTA2010,Neighborhood Tabulation Area,Neighborhood (NTA),8118,Rego Park,4,Queens,40.7262,-73.8633
NTA2010,Neighborhood Tabulation Area,Neighborhood (NTA),8119,Glendale,4,Queens,40.7035,-73.8757
NTA2010,Neighborhood Tabulation Area,Neighborhood (NTA),8120,Ridgewood,4,Queens,40.7065,-73.9017
NTA2010,Neighborhood Tabulation Area,Neighborhood (NTA),8121,Middle Village,4,Queens,40.7183,-73.8801
NTA2010,Neighborhood Tabulation Area,Neighborhood (NTA),8122,Flushing,4,Queens,40.7611,-73.8289
NTA2010,Neighborhood Tabulation Area,Neighborhood (NTA),8123,College Point,4,Queens,40.7809,-73.8428
NTA2010,Neighborhood Tabulation Area,Neighborhood (NTA),8125,Corona,4,Queens,40.7423,-73.8584
NTA2010,Neighborhood Tabulation Area,Neighborhood (NTA),8126,North Corona,4,Queens,40.7526,-73.863
NTA2010,Neighborhood Tabulation Area,Neighborhood (NTA),8127,East Elmhurst,4,Queens,40.7634,-73.8684
NTA2010,Neighborhood Tabulation Area,Neighborhood (NTA),8128,Jackson Heights,4,Queens,40.7573,-73.8853
NTA2010,Neighborhood Tabulation Area,Neighborhood (NTA),8129,Elmhurst,4,Queens,40.7395,-73.8771
NTA2010,Neighborhood Tabulation Area,Neighborhood (NTA),8130,Maspeth,4,Queens,40.724,-73.9023
NTA2010,Neighborhood Tabulation Area,Neighborhood (NTA),8131,Hunters Point-Sunnyside-West Maspeth,4,Queens,40.7398,-73.9312
NTA2010,Neighborhood Tabulation Area,Neighborhood (NTA),8133,Cambria Heights,4,Queens,40.6943,-73.7356
NTA2010,Neighborhood Tabulation Area,Neighborhood (NTA),8134,Queens Village,4,Queens,40.7155,-73.7415
NTA2010,Neighborhood Tabulation Area,Neighborhood (NTA),8135,Briarwood-Jamaica Hills,4,Queens,40.7116,-73.8087
NTA2010,Neighborhood Tabulation Area,Neighborhood (NTA),8137,Kew Gardens Hills,4,Queens,40.7264,-73.8187
NTA2010,Neighborhood Tabulation Area,Neighborhood (NTA),8138,Pomonok-Flushing Heights-Hillcrest,4,Queens,40.7283,-73.8024
NTA2010,Neighborhood Tabulation Area,Neighborhood (NTA),8141,Fresh Meadows-Utopia,4,Queens,40.7349,-73.7837
NTA2010,Neighborhood Tabulation Area,Neighborhood (NTA),8142,Oakland Gardens,4,Queens,40.7427,-73.7546
NTA2010,Neighborhood Tabulation Area,Neighborhood (NTA),8143,Bellerose,4,Queens,40.7355,-73.7267
NTA2010,Neighborhood Tabulation Area,Neighborhood (NTA),8144,Glen Oaks-Floral Park-New Hyde Park,4,Queens,40.746,-73.711
NTA2010,Neighborhood Tabulation Area,Neighborhood (NTA),8145,Douglas Manor-Douglaston-Little Neck,4,Queens,40.7637,-73.7369
NTA2010,Neighborhood Tabulation Area,Neighborhood (NTA),8146,Bayside-Bayside Hills,4,Queens,40.7627,-73.7734
NTA2010,Neighborhood Tabulation Area,Neighborhood (NTA),8147,Ft. Totten-Bay Terrace-Clearview,4,Queens,40.7833,-73.786
NTA2010,Neighborhood Tabulation Area,Neighborhood (NTA),8148,Auburndale,4,Queens,40.751,-73.7879
NTA2010,Neighborhood Tabulation Area,Neighborhood (NTA),8149,Whitestone,4,Queens,40.7882,-73.8156
NTA2010,Neighborhood Tabulation Area,Neighborhood (NTA),8150,Elmhurst-Maspeth,4,Queens,40.7383,-73.8922
NTA2010,Neighborhood Tabulation Area,Neighborhood (NTA),8151,Murray Hill,4,Queens,40.7684,-73.8095
NTA2010,Neighborhood Tabulation Area,Neighborhood (NTA),8152,East Flushing,4,Queens,40.7541,-73.8073
NTA2010,Neighborhood Tabulation Area,Neighborhood (NTA),8153,Woodhaven,4,Queens,40.6887,-73.8558
NTA2010,Neighborhood Tabulation Area,Neighborhood (NTA),8154,Richmond Hill,4,Queens,40.6945,-73.8309
NTA2010,Neighborhood Tabulation Area,Neighborhood (NTA),8155,South Ozone Park,4,Queens,40.6762,-73.8195
NTA2010,Neighborhood Tabulation Area,Neighborhood (NTA),8156,Ozone Park,4,Queens,40.6756,-73.847
NTA2010,Neighborhood Tabulation Area,Neighborhood (NTA),8157,Lindenwood-Howard Beach,4,Queens,40.6582,-73.8449
NTA2010,Neighborhood Tabulation Area,Neighborhood (NTA),8160,Kew Gardens,4,Queens,40.708,-73.8287
NTA2010,Neighborhood Tabulation Area,Neighborhood (NTA),8161,Jamaica,4,Queens,40.7044,-73.794
NTA2010,Neighborhood Tabulation Area,Neighborhood (NTA),8162,Queensboro Hill,4,Queens,40.7431,-73.8196
NTA2010,Neighborhood Tabulation Area,Neighborhood (NTA),8163,Woodside,4,Queens,40.7493,-73.9037
NTA2010,Neighborhood Tabulation Area,Neighborhood (NTA),8166,Laurelton,4,Queens,40.6759,-73.7445
NTA2010,Neighborhood Tabulation Area,Neighborhood (NTA),8168,Queensbridge-Ravenswood-Long Island City,4,Queens,40.7576,-73.9387
NTA2010,Neighborhood Tabulation Area,Neighborhood (NTA),8170,Astoria,4,Queens,40.7615,-73.9197
NTA2010,Neighborhood Tabulation Area,Neighborhood (NTA),8171,Old Astoria,4,Queens,40.7716,-73.9283
NTA2010,Neighborhood Tabulation Area,Neighborhood (NTA),8172,Steinway,4,Queens,40.7774,-73.9054
NTA2010,Neighborhood Tabulation Area,Neighborhood (NTA),8176,Baisley Park,4,Queens,40.679,-73.791
NTA2010,Neighborhood Tabulation Area,Neighborhood (NTA),8198,Airport,4,Queens,40.6646,-73.7986
NTA2010,Neighborhood Tabulation Area,Neighborhood (NTA),8199,park-cemetery-etc-Queens,4,Queens,40.69,-73.8326
NTA2010,Neighborhood Tabulation Area,Neighborhood (NTA),8501,Annadale-Huguenot-Prince's Bay-Eltingville,5,Staten Island,40.5286,-74.1877
NTA2010,Neighborhood Tabulation Area,Neighborhood (NTA),8505,New Springville-Bloomfield-Travis,5,Staten Island,40.5959,-74.1764
NTA2010,Neighborhood Tabulation Area,Neighborhood (NTA),8507,Westerleigh,5,Staten Island,40.6169,-74.1254
NTA2010,Neighborhood Tabulation Area,Neighborhood (NTA),8508,Grymes Hill-Clifton-Fox Hills,5,Staten Island,40.618,-74.0878
NTA2010,Neighborhood Tabulation Area,Neighborhood (NTA),8511,Charleston-Richmond Valley-Tottenville,5,Staten Island,40.5255,-74.2336
NTA2010,Neighborhood Tabulation Area,Neighborhood (NTA),8512,Mariner's Harbor-Arlington-Port Ivory-Graniteville,5,Staten Island,40.6313,-74.1674
NTA2010,Neighborhood Tabulation Area,Neighborhood (NTA),8514,Grasmere-Arrochar-Ft. Wadsworth,5,Staten Island,40.6003,-74.0718
NTA2010,Neighborhood Tabulation Area,Neighborhood (NTA),8522,West New Brighton-New Brighton-St. George,5,Staten Island,40.639,-74.1023
NTA2010,Neighborhood Tabulation Area,Neighborhood (NTA),8524,Todt Hill-Emerson Hill-Heartland Village-Lighthouse Hill,5,Staten Island,40.5866,-74.133
NTA2010,Neighborhood Tabulation Area,Neighborhood (NTA),8525,Oakwood-Oakwood Beach,5,Staten Island,40.562,-74.1226
NTA2010,Neighborhood Tabulation Area,Neighborhood (NTA),8528,Port Richmond,5,Staten Island,40.6282,-74.1408
NTA2010,Neighborhood Tabulation Area,Neighborhood (NTA),8532,Rossville-Woodrow,5,Staten Island,40.5403,-74.2078
NTA2010,Neighborhood Tabulation Area,Neighborhood (NTA),8535,New Brighton-Silver Lake,5,Staten Island,40.63,-74.1029
NTA2010,Neighborhood Tabulation Area,Neighborhood (NTA),8536,Old Town-Dongan Hills-South Beach,5,Staten Island,40.5868,-74.0855
NTA2010,Neighborhood Tabulation Area,Neighborhood (NTA),8537,Stapleton-Rosebank,5,Staten Island,40.6187,-74.0737
NTA2010,Neighborhood Tabulation Area,Neighborhood (NTA),8545,New Dorp-Midland Beach,5,Staten Island,40.5718,-74.105
NTA2010,Neighborhood Tabulation Area,Neighborhood (NTA),8548,Arden Heights,5,Staten Island,40.5527,-74.1885
NTA2010,Neighborhood Tabulation Area,Neighborhood (NTA),8554,Great Kills,5,Staten Island,40.5519,-74.1509
NTA2010,Neighborhood Tabulation Area,Neighborhood (NTA),8599,park-cemetery-etc-Staten Island,5,Staten Island,40.5458,-74.1283
NTA2020,Neighborhood Tabulation Area,Neighborhood (NTA),50101,Mott Haven-Port Morris,1,Bronx,40.8075,-73.9172
NTA2020,Neighborhood Tabulation Area,Neighborhood (NTA),50102,Melrose,1,Bronx,40.8183,-73.9129
NTA2020,Neighborhood Tabulation Area,Neighborhood (NTA),50201,Hunts Point,1,Bronx,40.8109,-73.885
NTA2020,Neighborhood Tabulation Area,Neighborhood (NTA),50202,Longwood,1,Bronx,40.821,-73.8966
NTA2020,Neighborhood Tabulation Area,Neighborhood (NTA),50301,Morrisania,1,Bronx,40.8273,-73.9047
NTA2020,Neighborhood Tabulation Area,Neighborhood (NTA),50302,Claremont Village-Claremont (East),1,Bronx,40.8376,-73.9035
NTA2020,Neighborhood Tabulation Area,Neighborhood (NTA),50303,Crotona Park East,1,Bronx,40.8321,-73.8887
NTA2020,Neighborhood Tabulation Area,Neighborhood (NTA),50401,Concourse-Concourse Village,1,Bronx,40.8267,-73.9217
NTA2020,Neighborhood Tabulation Area,Neighborhood (NTA),50402,Highbridge,1,Bronx,40.8369,-73.9278
NTA2020,Neighborhood Tabulation Area,Neighborhood (NTA),50403,Mount Eden-Claremont (West),1,Bronx,40.8405,-73.9144
NTA2020,Neighborhood Tabulation Area,Neighborhood (NTA),50501,University Heights (South)-Morris Heights,1,Bronx,40.8519,-73.9161
NTA2020,Neighborhood Tabulation Area,Neighborhood (NTA),50502,Mount Hope,1,Bronx,40.8499,-73.9044
NTA2020,Neighborhood Tabulation Area,Neighborhood (NTA),50503,Fordham Heights,1,Bronx,40.8587,-73.8991
NTA2020,Neighborhood Tabulation Area,Neighborhood (NTA),50601,West Farms,1,Bronx,40.8413,-73.8786
NTA2020,Neighborhood Tabulation Area,Neighborhood (NTA),50602,Tremont,1,Bronx,40.8469,-73.8918
NTA2020,Neighborhood Tabulation Area,Neighborhood (NTA),50603,Belmont,1,Bronx,40.8576,-73.8871
NTA2020,Neighborhood Tabulation Area,Neighborhood (NTA),50701,University Heights (North)-Fordham,1,Bronx,40.8646,-73.9047
NTA2020,Neighborhood Tabulation Area,Neighborhood (NTA),50702,Bedford Park,1,Bronx,40.8736,-73.8908
NTA2020,Neighborhood Tabulation Area,Neighborhood (NTA),50703,Norwood,1,Bronx,40.8771,-73.879
NTA2020,Neighborhood Tabulation Area,Neighborhood (NTA),50801,Kingsbridge Heights-Van Cortlandt Village,1,Bronx,40.8777,-73.8991
NTA2020,Neighborhood Tabulation Area,Neighborhood (NTA),50802,Kingsbridge-Marble Hill,1,Bronx,40.8808,-73.9057
NTA2020,Neighborhood Tabulation Area,Neighborhood (NTA),50803,Riverdale-Spuyten Duyvil,1,Bronx,40.8957,-73.9088
NTA2020,Neighborhood Tabulation Area,Neighborhood (NTA),50901,Soundview-Bruckner-Bronx River,1,Bronx,40.8296,-73.8732
NTA2020,Neighborhood Tabulation Area,Neighborhood (NTA),50902,Soundview-Clason Point,1,Bronx,40.8161,-73.8591
NTA2020,Neighborhood Tabulation Area,Neighborhood (NTA),50903,Castle Hill-Unionport,1,Bronx,40.8245,-73.8487
NTA2020,Neighborhood Tabulation Area,Neighborhood (NTA),50904,Parkchester,1,Bronx,40.8377,-73.858
NTA2020,Neighborhood Tabulation Area,Neighborhood (NTA),51001,Westchester Square,1,Bronx,40.8377,-73.8459
NTA2020,Neighborhood Tabulation Area,Neighborhood (NTA),51002,Throgs Neck-Schuylerville,1,Bronx,40.8255,-73.8206
NTA2020,Neighborhood Tabulation Area,Neighborhood (NTA),51003,Pelham Bay-Country Club-City Island,1,Bronx,40.8456,-73.8115
NTA2020,Neighborhood Tabulation Area,Neighborhood (NTA),51004,Co-op City,1,Bronx,40.8723,-73.8263
NTA2020,Neighborhood Tabulation Area,Neighborhood (NTA),51101,Pelham Parkway-Van Nest,1,Bronx,40.8479,-73.865
NTA2020,Neighborhood Tabulation Area,Neighborhood (NTA),51102,Morris Park,1,Bronx,40.8518,-73.8517
NTA2020,Neighborhood Tabulation Area,Neighborhood (NTA),51103,Pelham Gardens,1,Bronx,40.8642,-73.8467
NTA2020,Neighborhood Tabulation Area,Neighborhood (NTA),51104,Allerton,1,Bronx,40.864,-73.8642
NTA2020,Neighborhood Tabulation Area,Neighborhood (NTA),51201,Williamsbridge-Olinville,1,Bronx,40.881,-73.8607
NTA2020,Neighborhood Tabulation Area,Neighborhood (NTA),51202,Eastchester-Edenwald-Baychester,1,Bronx,40.8815,-73.8366
NTA2020,Neighborhood Tabulation Area,Neighborhood (NTA),51203,Wakefield-Woodlawn,1,Bronx,40.898,-73.854
NTA2020,Neighborhood Tabulation Area,Neighborhood (NTA),470101,Greenpoint,2,Brooklyn,40.7295,-73.9495
NTA2020,Neighborhood Tabulation Area,Neighborhood (NTA),470102,Williamsburg,2,Brooklyn,40.7149,-73.9586
NTA2020,Neighborhood Tabulation Area,Neighborhood (NTA),470103,South Williamsburg,2,Brooklyn,40.7032,-73.9567
NTA2020,Neighborhood Tabulation Area,Neighborhood (NTA),470104,East Williamsburg,2,Brooklyn,40.7133,-73.9365
NTA2020,Neighborhood Tabulation Area,Neighborhood (NTA),470201,Brooklyn Heights,2,Brooklyn,40.6955,-73.9948
NTA2020,Neighborhood Tabulation Area,Neighborhood (NTA),470202,Downtown Brooklyn-DUMBO-Boerum Hill,2,Brooklyn,40.6949,-73.9858
NTA2020,Neighborhood Tabulation Area,Neighborhood (NTA),470203,Fort Greene,2,Brooklyn,40.6912,-73.9744
NTA2020,Neighborhood Tabulation Area,Neighborhood (NTA),470204,Clinton Hill,2,Brooklyn,40.689,-73.9645
NTA2020,Neighborhood Tabulation Area,Neighborhood (NTA),470301,Bedford-Stuyvesant (West),2,Brooklyn,40.689,-73.951
NTA2020,Neighborhood Tabulation Area,Neighborhood (NTA),470302,Bedford-Stuyvesant (East),2,Brooklyn,40.6866,-73.9318
NTA2020,Neighborhood Tabulation Area,Neighborhood (NTA),470401,Bushwick (West),2,Brooklyn,40.701,-73.9253
NTA2020,Neighborhood Tabulation Area,Neighborhood (NTA),470402,Bushwick (East),2,Brooklyn,40.6912,-73.913
NTA2020,Neighborhood Tabulation Area,Neighborhood (NTA),470501,Cypress Hills,2,Brooklyn,40.6825,-73.8821
NTA2020,Neighborhood Tabulation Area,Neighborhood (NTA),470502,East New York (North),2,Brooklyn,40.6725,-73.8895
NTA2020,Neighborhood Tabulation Area,Neighborhood (NTA),470503,East New York-New Lots,2,Brooklyn,40.6597,-73.888
NTA2020,Neighborhood Tabulation Area,Neighborhood (NTA),470504,Spring Creek-Starrett City,2,Brooklyn,40.651,-73.8764
NTA2020,Neighborhood Tabulation Area,Neighborhood (NTA),470505,East New York-City Line,2,Brooklyn,40.6705,-73.8661
NTA2020,Neighborhood Tabulation Area,Neighborhood (NTA),470601,Carroll Gardens-Cobble Hill-Gowanus-Red Hook,2,Brooklyn,40.6781,-74.0001
NTA2020,Neighborhood Tabulation Area,Neighborhood (NTA),470602,Park Slope,2,Brooklyn,40.6718,-73.9798
NTA2020,Neighborhood Tabulation Area,Neighborhood (NTA),470701,Windsor Terrace-South Slope,2,Brooklyn,40.656,-73.98
NTA2020,Neighborhood Tabulation Area,Neighborhood (NTA),470702,Sunset Park (West),2,Brooklyn,40.6535,-74.0101
NTA2020,Neighborhood Tabulation Area,Neighborhood (NTA),470703,Sunset Park (Central),2,Brooklyn,40.6424,-74.0079
NTA2020,Neighborhood Tabulation Area,Neighborhood (NTA),470801,Prospect Heights,2,Brooklyn,40.6776,-73.9676
NTA2020,Neighborhood Tabulation Area,Neighborhood (NTA),470802,Crown Heights (North),2,Brooklyn,40.6739,-73.9419
NTA2020,Neighborhood Tabulation Area,Neighborhood (NTA),470901,Crown Heights (South),2,Brooklyn,40.6667,-73.946
NTA2020,Neighborhood Tabulation Area,Neighborhood (NTA),470902,Prospect Lefferts Gardens-Wingate,2,Brooklyn,40.6598,-73.948
NTA2020,Neighborhood Tabulation Area,Neighborhood (NTA),471001,Bay Ridge,2,Brooklyn,40.6267,-74.0299
NTA2020,Neighborhood Tabulation Area,Neighborhood (NTA),471002,Dyker Heights,2,Brooklyn,40.624,-74.0108
NTA2020,Neighborhood Tabulation Area,Neighborhood (NTA),471101,Bensonhurst,2,Brooklyn,40.6133,-73.9933
NTA2020,Neighborhood Tabulation Area,Neighborhood (NTA),471102,Bath Beach,2,Brooklyn,40.6043,-74.0075
NTA2020,Neighborhood Tabulation Area,Neighborhood (NTA),471103,Gravesend (West),2,Brooklyn,40.5993,-73.9857
NTA2020,Neighborhood Tabulation Area,Neighborhood (NTA),471201,Sunset Park (East)-Borough Park (West),2,Brooklyn,40.6408,-73.9994
NTA2020,Neighborhood Tabulation Area,Neighborhood (NTA),471202,Borough Park,2,Brooklyn,40.6329,-73.9895
NTA2020,Neighborhood Tabulation Area,Neighborhood (NTA),471203,Kensington,2,Brooklyn,40.6411,-73.9761
NTA2020,Neighborhood Tabulation Area,Neighborhood (NTA),471204,Mapleton-Midwood (West),2,Brooklyn,40.6193,-73.9733
NTA2020,Neighborhood Tabulation Area,Neighborhood (NTA),471301,Gravesend (South),2,Brooklyn,40.588,-73.978
NTA2020,Neighborhood Tabulation Area,Neighborhood (NTA),471302,Coney Island-Sea Gate,2,Brooklyn,40.577,-73.988
NTA2020,Neighborhood Tabulation Area,Neighborhood (NTA),471303,Brighton Beach,2,Brooklyn,40.5791,-73.9607
NTA2020,Neighborhood Tabulation Area,Neighborhood (NTA),471401,Flatbush,2,Brooklyn,40.6407,-73.9564
NTA2020,Neighborhood Tabulation Area,Neighborhood (NTA),471402,Flatbush (West)-Ditmas Park-Parkville,2,Brooklyn,40.6365,-73.9662
NTA2020,Neighborhood Tabulation Area,Neighborhood (NTA),471403,Midwood,2,Brooklyn,40.6204,-73.9556
NTA2020,Neighborhood Tabulation Area,Neighborhood (NTA),471501,Gravesend (East)-Homecrest,2,Brooklyn,40.5991,-73.9659
NTA2020,Neighborhood Tabulation Area,Neighborhood (NTA),471502,Madison,2,Brooklyn,40.6049,-73.9481
NTA2020,Neighborhood Tabulation Area,Neighborhood (NTA),471503,Sheepshead Bay-Manhattan Beach-Gerritsen Beach,2,Brooklyn,40.5883,-73.9415
NTA2020,Neighborhood Tabulation Area,Neighborhood (NTA),471601,Ocean Hill,2,Brooklyn,40.6766,-73.9136
NTA2020,Neighborhood Tabulation Area,Neighborhood (NTA),471602,Brownsville,2,Brooklyn,40.664,-73.9095
NTA2020,Neighborhood Tabulation Area,Neighborhood (NTA),471701,East Flatbush-Erasmus,2,Brooklyn,40.6486,-73.9501
NTA2020,Neighborhood Tabulation Area,Neighborhood (NTA),471702,East Flatbush-Farragut,2,Brooklyn,40.6391,-73.9376
NTA2020,Neighborhood Tabulation Area,Neighborhood (NTA),471703,East Flatbush-Rugby,2,Brooklyn,40.6515,-73.9298
NTA2020,Neighborhood Tabulation Area,Neighborhood (NTA),471704,East Flatbush-Remsen Village,2,Brooklyn,40.6562,-73.9192
NTA2020,Neighborhood Tabulation Area,Neighborhood (NTA),471801,Flatlands,2,Brooklyn,40.6263,-73.9301
NTA2020,Neighborhood Tabulation Area,Neighborhood (NTA),471802,Marine Park-Mill Basin-Bergen Beach,2,Brooklyn,40.615,-73.9185
NTA2020,Neighborhood Tabulation Area,Neighborhood (NTA),471803,Canarsie,2,Brooklyn,40.6394,-73.9015
NTA2020,Neighborhood Tabulation Area,Neighborhood (NTA),610101,Financial District-Battery Park City,3,Manhattan,40.7081,-74.0102
NTA2020,Neighborhood Tabulation Area,Neighborhood (NTA),610102,Tribeca-Civic Center,3,Manhattan,40.7173,-74.0072
NTA2020,Neighborhood Tabulation Area,Neighborhood (NTA),610201,SoHo-Little Italy-Hudson Square,3,Manhattan,40.7235,-74.0017
NTA2020,Neighborhood Tabulation Area,Neighborhood (NTA),610202,Greenwich Village,3,Manhattan,40.7307,-73.9957
NTA2020,Neighborhood Tabulation Area,Neighborhood (NTA),610203,West Village,3,Manhattan,40.7347,-74.0059
NTA2020,Neighborhood Tabulation Area,Neighborhood (NTA),610301,Chinatown-Two Bridges,3,Manhattan,40.7129,-73.9937
NTA2020,Neighborhood Tabulation Area,Neighborhood (NTA),610302,Lower East Side,3,Manhattan,40.717,-73.9838
NTA2020,Neighborhood Tabulation Area,Neighborhood (NTA),610303,East Village,3,Manhattan,40.726,-73.9821
NTA2020,Neighborhood Tabulation Area,Neighborhood (NTA),610401,Chelsea-Hudson Yards,3,Manhattan,40.7494,-74.0011
NTA2020,Neighborhood Tabulation Area,Neighborhood (NTA),610402,Hell's Kitchen,3,Manhattan,40.7642,-73.9924
NTA2020,Neighborhood Tabulation Area,Neighborhood (NTA),610501,Midtown South-Flatiron-Union Square,3,Manhattan,40.744,-73.9898
NTA2020,Neighborhood Tabulation Area,Neighborhood (NTA),610502,Midtown-Times Square,3,Manhattan,40.7578,-73.9816
NTA2020,Neighborhood Tabulation Area,Neighborhood (NTA),610601,Stuyvesant Town-Peter Cooper Village,3,Manhattan,40.7318,-73.9766
NTA2020,Neighborhood Tabulation Area,Neighborhood (NTA),610602,Gramercy,3,Manhattan,40.7368,-73.9841
NTA2020,Neighborhood Tabulation Area,Neighborhood (NTA),610603,Murray Hill-Kips Bay,3,Manhattan,40.7442,-73.9759
NTA2020,Neighborhood Tabulation Area,Neighborhood (NTA),610604,East Midtown-Turtle Bay,3,Manhattan,40.756100000000004,-73.9685
NTA2020,Neighborhood Tabulation Area,Neighborhood (NTA),610701,Upper West Side-Lincoln Square,3,Manhattan,40.7748,-73.9847
NTA2020,Neighborhood Tabulation Area,Neighborhood (NTA),610702,Upper West Side (Central),3,Manhattan,40.7877,-73.9759
NTA2020,Neighborhood Tabulation Area,Neighborhood (NTA),610703,Upper West Side-Manhattan Valley,3,Manhattan,40.7992,-73.9673
NTA2020,Neighborhood Tabulation Area,Neighborhood (NTA),610801,Upper East Side-Lenox Hill-Roosevelt Island,3,Manhattan,40.765,-73.9551
NTA2020,Neighborhood Tabulation Area,Neighborhood (NTA),610802,Upper East Side-Carnegie Hill,3,Manhattan,40.7747,-73.9612
NTA2020,Neighborhood Tabulation Area,Neighborhood (NTA),610803,Upper East Side-Yorkville,3,Manhattan,40.7773,-73.9487
NTA2020,Neighborhood Tabulation Area,Neighborhood (NTA),610901,Morningside Heights,3,Manhattan,40.8095,-73.9618
NTA2020,Neighborhood Tabulation Area,Neighborhood (NTA),610902,Manhattanville-West Harlem,3,Manhattan,40.818,-73.9538
NTA2020,Neighborhood Tabulation Area,Neighborhood (NTA),610903,Hamilton Heights-Sugar Hill,3,Manhattan,40.827,-73.9485
NTA2020,Neighborhood Tabulation Area,Neighborhood (NTA),611001,Harlem (South),3,Manhattan,40.8043,-73.9513
NTA2020,Neighborhood Tabulation Area,Neighborhood (NTA),611002,Harlem (North),3,Manhattan,40.8189,-73.9409
NTA2020,Neighborhood Tabulation Area,Neighborhood (NTA),611101,East Harlem (South),3,Manhattan,40.79,-73.9458
NTA2020,Neighborhood Tabulation Area,Neighborhood (NTA),611102,East Harlem (North),3,Manhattan,40.8016,-73.9374
NTA2020,Neighborhood Tabulation Area,Neighborhood (NTA),611201,Washington Heights (South),3,Manhattan,40.8409,-73.9415
NTA2020,Neighborhood Tabulation Area,Neighborhood (NTA),611202,Washington Heights (North),3,Manhattan,40.8565,-73.9335
NTA2020,Neighborhood Tabulation Area,Neighborhood (NTA),611203,Inwood,3,Manhattan,40.866,-73.9193
NTA2020,Neighborhood Tabulation Area,Neighborhood (NTA),810101,Astoria (North)-Ditmars-Steinway,4,Queens,40.7774,-73.9053
NTA2020,Neighborhood Tabulation Area,Neighborhood (NTA),810102,Old Astoria-Hallets Point,4,Queens,40.7721,-73.9314
NTA2020,Neighborhood Tabulation Area,Neighborhood (NTA),810103,Astoria (Central),4,Queens,40.7643,-73.9231
NTA2020,Neighborhood Tabulation Area,Neighborhood (NTA),810104,Astoria (East)-Woodside (North),4,Queens,40.7596,-73.9103
NTA2020,Neighborhood Tabulation Area,Neighborhood (NTA),810105,Queensbridge-Ravenswood-Dutch Kills,4,Queens,40.7583,-73.9379
NTA2020,Neighborhood Tabulation Area,Neighborhood (NTA),810201,Long Island City-Hunters Point,4,Queens,40.7454,-73.9489
NTA2020,Neighborhood Tabulation Area,Neighborhood (NTA),810202,Sunnyside,4,Queens,40.7384,-73.9264
NTA2020,Neighborhood Tabulation Area,Neighborhood (NTA),810203,Woodside,4,Queens,40.7431,-73.9014
NTA2020,Neighborhood Tabulation Area,Neighborhood (NTA),810301,Jackson Heights,4,Queens,40.7555,-73.8863
NTA2020,Neighborhood Tabulation Area,Neighborhood (NTA),810302,East Elmhurst,4,Queens,40.7641,-73.8722
NTA2020,Neighborhood Tabulation Area,Neighborhood (NTA),810303,North Corona,4,Queens,40.7541,-73.8629
NTA2020,Neighborhood Tabulation Area,Neighborhood (NTA),810401,Elmhurst,4,Queens,40.7394,-73.8791
NTA2020,Neighborhood Tabulation Area,Neighborhood (NTA),810402,Corona,4,Queens,40.7432,-73.8593
NTA2020,Neighborhood Tabulation Area,Neighborhood (NTA),810501,Maspeth,4,Queens,40.7231,-73.9051
NTA2020,Neighborhood Tabulation Area,Neighborhood (NTA),810502,Ridgewood,4,Queens,40.7057,-73.9037
NTA2020,Neighborhood Tabulation Area,Neighborhood (NTA),810503,Glendale,4,Queens,40.7035,-73.8757
NTA2020,Neighborhood Tabulation Area,Neighborhood (NTA),810504,Middle Village,4,Queens,40.7192,-73.8781
NTA2020,Neighborhood Tabulation Area,Neighborhood (NTA),810601,Rego Park,4,Queens,40.7262,-73.8634
NTA2020,Neighborhood Tabulation Area,Neighborhood (NTA),810602,Forest Hills,4,Queens,40.7215,-73.8477
NTA2020,Neighborhood Tabulation Area,Neighborhood (NTA),810701,College Point,4,Queens,40.7826,-73.8399
NTA2020,Neighborhood Tabulation Area,Neighborhood (NTA),810702,Whitestone-Beechhurst,4,Queens,40.7884,-73.8109
NTA2020,Neighborhood Tabulation Area,Neighborhood (NTA),810703,Bay Terrace-Clearview,4,Queens,40.7819,-73.7876
NTA2020,Neighborhood Tabulation Area,Neighborhood (NTA),810704,Murray Hill-Broadway Flushing,4,Queens,40.7689,-73.8108
NTA2020,Neighborhood Tabulation Area,Neighborhood (NTA),810705,East Flushing,4,Queens,40.7538,-73.8081
NTA2020,Neighborhood Tabulation Area,Neighborhood (NTA),810706,Queensboro Hill,4,Queens,40.7431,-73.8197
NTA2020,Neighborhood Tabulation Area,Neighborhood (NTA),810707,Flushing-Willets Point,4,Queens,40.7602,-73.8316
NTA2020,Neighborhood Tabulation Area,Neighborhood (NTA),810801,Kew Gardens Hills,4,Queens,40.7266,-73.8198
NTA2020,Neighborhood Tabulation Area,Neighborhood (NTA),810802,Pomonok-Electchester-Hillcrest,4,Queens,40.7271,-73.8034
NTA2020,Neighborhood Tabulation Area,Neighborhood (NTA),810803,Fresh Meadows-Utopia,4,Queens,40.7349,-73.7862
NTA2020,Neighborhood Tabulation Area,Neighborhood (NTA),810804,Jamaica Estates-Holliswood,4,Queens,40.7207,-73.7776
NTA2020,Neighborhood Tabulation Area,Neighborhood (NTA),810805,Jamaica Hills-Briarwood,4,Queens,40.7119,-73.8088
NTA2020,Neighborhood Tabulation Area,Neighborhood (NTA),810901,Kew Gardens,4,Queens,40.708,-73.8288
NTA2020,Neighborhood Tabulation Area,Neighborhood (NTA),810902,Richmond Hill,4,Queens,40.6975,-73.8328
NTA2020,Neighborhood Tabulation Area,Neighborhood (NTA),810903,South Richmond Hill,4,Queens,40.6913,-73.8249
NTA2020,Neighborhood Tabulation Area,Neighborhood (NTA),810904,Ozone Park (North),4,Queens,40.6846,-73.8494
NTA2020,Neighborhood Tabulation Area,Neighborhood (NTA),810905,Woodhaven,4,Queens,40.6915,-73.8574
NTA2020,Neighborhood Tabulation Area,Neighborhood (NTA),811001,South Ozone Park,4,Queens,40.6762,-73.8195
NTA2020,Neighborhood Tabulation Area,Neighborhood (NTA),811002,Ozone Park,4,Queens,40.6756,-73.847
NTA2020,Neighborhood Tabulation Area,Neighborhood (NTA),811003,Howard Beach-Lindenwood,4,Queens,40.66,-73.844
NTA2020,Neighborhood Tabulation Area,Neighborhood (NTA),811101,Auburndale,4,Queens,40.7553,-73.786
NTA2020,Neighborhood Tabulation Area,Neighborhood (NTA),811102,Bayside,4,Queens,40.7618,-73.7676
NTA2020,Neighborhood Tabulation Area,Neighborhood (NTA),811103,Douglaston-Little Neck,4,Queens,40.7637,-73.7369
NTA2020,Neighborhood Tabulation Area,Neighborhood (NTA),811104,Oakland Gardens-Hollis Hills,4,Queens,40.7393,-73.7546
NTA2020,Neighborhood Tabulation Area,Neighborhood (NTA),811201,Jamaica,4,Queens,40.704,-73.7956
NTA2020,Neighborhood Tabulation Area,Neighborhood (NTA),811202,South Jamaica,4,Queens,40.6943,-73.7917
NTA2020,Neighborhood Tabulation Area,Neighborhood (NTA),811203,Baisley Park,4,Queens,40.6795,-73.7899
NTA2020,Neighborhood Tabulation Area,Neighborhood (NTA),811204,Springfield Gardens (North)-Rochdale Village,4,Queens,40.6733,-73.7721
NTA2020,Neighborhood Tabulation Area,Neighborhood (NTA),811205,St. Albans,4,Queens,40.6932,-73.762200000000007
NTA2020,Neighborhood Tabulation Area,Neighborhood (NTA),811206,Hollis,4,Queens,40.7119,-73.7621
NTA2020,Neighborhood Tabulation Area,Neighborhood (NTA),811301,Glen Oaks-Floral Park-New Hyde Park,4,Queens,40.746,-73.711
NTA2020,Neighborhood Tabulation Area,Neighborhood (NTA),811302,Bellerose,4,Queens,40.7355,-73.7267
NTA2020,Neighborhood Tabulation Area,Neighborhood (NTA),811303,Queens Village,4,Queens,40.7161,-73.7418
NTA2020,Neighborhood Tabulation Area,Neighborhood (NTA),811304,Cambria Heights,4,Queens,40.6943,-73.7356
NTA2020,Neighborhood Tabulation Area,Neighborhood (NTA),811305,Laurelton,4,Queens,40.6759,-73.7445
NTA2020,Neighborhood Tabulation Area,Neighborhood (NTA),811306,Springfield Gardens (South)-Brookville,4,Queens,40.6602,-73.7615
NTA2020,Neighborhood Tabulation Area,Neighborhood (NTA),811307,Rosedale,4,Queens,40.659,-73.7357
NTA2020,Neighborhood Tabulation Area,Neighborhood (NTA),811401,Far Rockaway-Bayswater,4,Queens,40.6017,-73.7566
NTA2020,Neighborhood Tabulation Area,Neighborhood (NTA),811402,Rockaway Beach-Arverne-Edgemere,4,Queens,40.5916,-73.7963
NTA2020,Neighborhood Tabulation Area,Neighborhood (NTA),811403,Breezy Point-Belle Harbor-Rockaway Park-Broad Channel,4,Queens,40.5782,-73.8606
NTA2020,Neighborhood Tabulation Area,Neighborhood (NTA),850101,St. George-New Brighton,5,Staten Island,40.6422,-74.0855
NTA2020,Neighborhood Tabulation Area,Neighborhood (NTA),850102,Tompkinsville-Stapleton-Clifton-Fox Hills,5,Staten Island,40.6261,-74.0788
NTA2020,Neighborhood Tabulation Area,Neighborhood (NTA),850103,Rosebank-Shore Acres-Park Hill,5,Staten Island,40.6117,-74.0728
NTA2020,Neighborhood Tabulation Area,Neighborhood (NTA),850104,West New Brighton-Silver Lake-Grymes Hill,5,Staten Island,40.6281,-74.1013
NTA2020,Neighborhood Tabulation Area,Neighborhood (NTA),850105,Westerleigh-Castleton Corners,5,Staten Island,40.617,-74.1288
NTA2020,Neighborhood Tabulation Area,Neighborhood (NTA),850106,Port Richmond,5,Staten Island,40.6338,-74.1332
NTA2020,Neighborhood Tabulation Area,Neighborhood (NTA),850107,Mariner's Harbor-Arlington-Graniteville,5,Staten Island,40.6313,-74.1674
NTA2020,Neighborhood Tabulation Area,Neighborhood (NTA),850201,Grasmere-Arrochar-South Beach-Dongan Hills,5,Staten Island,40.5935,-74.0813
NTA2020,Neighborhood Tabulation Area,Neighborhood (NTA),850202,New Dorp-Midland Beach,5,Staten Island,40.5743,-74.1016
NTA2020,Neighborhood Tabulation Area,Neighborhood (NTA),850203,Todt Hill-Emerson Hill-Lighthouse Hill-Manor Heights,5,Staten Island,40.5897,-74.1283
NTA2020,Neighborhood Tabulation Area,Neighborhood (NTA),850204,New Springville-Willowbrook-Bulls Head-Travis,5,Staten Island,40.6037,-74.1755
NTA2020,Neighborhood Tabulation Area,Neighborhood (NTA),850301,Oakwood-Richmondtown,5,Staten Island,40.562,-74.1226
NTA2020,Neighborhood Tabulation Area,Neighborhood (NTA),850302,Great Kills-Eltingville,5,Staten Island,40.5503,-74.155
NTA2020,Neighborhood Tabulation Area,Neighborhood (NTA),850303,Arden Heights-Rossville,5,Staten Island,40.5526,-74.1969
NTA2020,Neighborhood Tabulation Area,Neighborhood (NTA),850304,Annadale-Huguenot-Prince's Bay-Woodrow,5,Staten Island,40.5284,-74.198
NTA2020,Neighborhood Tabulation Area,Neighborhood (NTA),850305,Tottenville-Charleston,5,Staten Island,40.5246,-74.2355
NYCKIDS2017,NYC KIDS,Neighborhood (NYC KIDS),10,Rest of Manhattan,3,Manhattan,40.8605,-73.8546
NYCKIDS2017,NYC KIDS,Neighborhood (NYC KIDS),11,East Harlem Neighborhood Health Action Center area,3,Manhattan,40.8283,-73.9032
NYCKIDS2017,NYC KIDS,Neighborhood (NYC KIDS),20,Rest of Bronx,1,Bronx,40.6348,-73.9582
NYCKIDS2017,NYC KIDS,Neighborhood (NYC KIDS),21,Tremont Neighborhood Health Action Center area,1,Bronx,40.6783,-73.9131
NYCKIDS2017,NYC KIDS,Neighborhood (NYC KIDS),30,Rest of Brooklyn,2,Brooklyn,40.7708,-73.9733
NYCKIDS2017,NYC KIDS,Neighborhood (NYC KIDS),31,Brownsville Neighborhood Health Action Center area,2,Brooklyn,40.8048,-73.9407
NYCKIDS2017,NYC KIDS,Neighborhood (NYC KIDS),40,Rest of Queens,4,Queens,40.7144,-73.8234
NYCKIDS2017,NYC KIDS,Neighborhood (NYC KIDS),41,Queens high need area,4,Queens,40.661,-73.7858
NYCKIDS2017,NYC KIDS,Neighborhood (NYC KIDS),50,Staten Island,5,Staten Island,40.5808,-74.1534
NYCKIDS2019,NYC KIDS,Neighborhood (NYC KIDS),10,Rest of Manhattan,3,Manhattan,40.8605,-73.8546
NYCKIDS2019,NYC KIDS,Neighborhood (NYC KIDS),11,East Harlem Neighborhood Health Action Center area,3,Manhattan,40.8283,-73.9032
NYCKIDS2019,NYC KIDS,Neighborhood (NYC KIDS),20,Rest of Bronx,1,Bronx,40.6348,-73.9582
NYCKIDS2019,NYC KIDS,Neighborhood (NYC KIDS),21,Tremont Neighborhood Health Action Center area,1,Bronx,40.6783,-73.9131
NYCKIDS2019,NYC KIDS,Neighborhood (NYC KIDS),30,Rest of Brooklyn,2,Brooklyn,40.7709,-73.9733
NYCKIDS2019,NYC KIDS,Neighborhood (NYC KIDS),31,Brownsville Neighborhood Health Action Center area,2,Brooklyn,40.8048,-73.9407
NYCKIDS2019,NYC KIDS,Neighborhood (NYC KIDS),40,Queens,4,Queens,40.7077,-73.8186
NYCKIDS2019,NYC KIDS,Neighborhood (NYC KIDS),50,Staten Island,5,Staten Island,40.5808,-74.1534
NYCKIDS2021,NYC KIDS,Neighborhood (NYC KIDS),10,Rest of Manhattan,1,Bronx,40.8604,-73.8535
NYCKIDS2021,NYC KIDS,Neighborhood (NYC KIDS),11,East Harlem Neighborhood Health Action Center area,1,Bronx,40.8313,-73.9018
NYCKIDS2021,NYC KIDS,Neighborhood (NYC KIDS),20,Rest of Bronx,2,Brooklyn,40.6335,-73.9589
NYCKIDS2021,NYC KIDS,Neighborhood (NYC KIDS),21,Tremont Neighborhood Health Action Center area,2,Brooklyn,40.6782,-73.9149
NYCKIDS2021,NYC KIDS,Neighborhood (NYC KIDS),30,Rest of Brooklyn,3,Manhattan,40.7709,-73.9733
NYCKIDS2021,NYC KIDS,Neighborhood (NYC KIDS),31,Brownsville Neighborhood Health Action Center area,3,Manhattan,40.8048,-73.9407
NYCKIDS2021,NYC KIDS,Neighborhood (NYC KIDS),40,Rest of Queens,4,Queens,40.71,-73.82
NYCKIDS2021,NYC KIDS,Neighborhood (NYC KIDS),41,Queens high need area,4,Queens,40.686,-73.8058
NYCKIDS2021,NYC KIDS,Neighborhood (NYC KIDS),50,Staten Island,5,Staten Island,40.5808,-74.1534
